<?xml version="1.0" encoding="UTF-8"?>
<xml>
<GeocodeResponse>
 <status>OK</status>
 <result>
  <type>locality</type>
  <type>political</type>
  <formatted_address>Sarandë, Albania</formatted_address>
  <address_component>
   <long_name>Sarandë</long_name>
   <short_name>Sarandë</short_name>
   <type>locality</type>
   <type>political</type>
  </address_component>
  <address_component>
   <long_name>Vlorë County</long_name>
   <short_name>Vlorë County</short_name>
   <type>administrative_area_level_1</type>
   <type>political</type>
  </address_component>
  <address_component>
   <long_name>Albania</long_name>
   <short_name>AL</short_name>
   <type>country</type>
   <type>political</type>
  </address_component>
  <geometry>
   <location>
    <lat>39.8592119</lat>
    <lng>20.0271001</lng>
   </location>
   <location_type>APPROXIMATE</location_type>
   <viewport>
    <southwest>
     <lat>39.8490077</lat>
     <lng>19.9695827</lng>
    </southwest>
    <northeast>
     <lat>39.8857016</lat>
     <lng>20.0435258</lng>
    </northeast>
   </viewport>
   <bounds>
    <southwest>
     <lat>39.8490077</lat>
     <lng>19.9695827</lng>
    </southwest>
    <northeast>
     <lat>39.8857016</lat>
     <lng>20.0435258</lng>
    </northeast>
   </bounds>
  </geometry>
  <place_id>ChIJMVSsr_8UWxMREBmiCH5e1dY</place_id>
 </result>
</GeocodeResponse>


<GeocodeResponse>
 <status>OK</status>
 <result>
  <type>locality</type>
  <type>political</type>
  <formatted_address>Vlorë, Albania</formatted_address>
  <address_component>
   <long_name>Vlorë</long_name>
   <short_name>Vlorë</short_name>
   <type>locality</type>
   <type>political</type>
  </address_component>
  <address_component>
   <long_name>Vlorë County</long_name>
   <short_name>Vlorë County</short_name>
   <type>administrative_area_level_1</type>
   <type>political</type>
  </address_component>
  <address_component>
   <long_name>Albania</long_name>
   <short_name>AL</short_name>
   <type>country</type>
   <type>political</type>
  </address_component>
  <geometry>
   <location>
    <lat>40.4660668</lat>
    <lng>19.4913560</lng>
   </location>
   <location_type>APPROXIMATE</location_type>
   <viewport>
    <southwest>
     <lat>40.4103918</lat>
     <lng>19.4530106</lng>
    </southwest>
    <northeast>
     <lat>40.4912342</lat>
     <lng>19.5100021</lng>
    </northeast>
   </viewport>
   <bounds>
    <southwest>
     <lat>40.4103918</lat>
     <lng>19.4530106</lng>
    </southwest>
    <northeast>
     <lat>40.4912342</lat>
     <lng>19.5100021</lng>
    </northeast>
   </bounds>
  </geometry>
  <place_id>ChIJlRjM6PEzRRMRhg4-8ZoJMQ0</place_id>
 </result>
</GeocodeResponse>


<GeocodeResponse>
 <status>OK</status>
 <result>
  <type>country</type>
  <type>political</type>
  <formatted_address>Albania</formatted_address>
  <address_component>
   <long_name>Albania</long_name>
   <short_name>AL</short_name>
   <type>country</type>
   <type>political</type>
  </address_component>
  <geometry>
   <location>
    <lat>41.1533320</lat>
    <lng>20.1683310</lng>
   </location>
   <location_type>APPROXIMATE</location_type>
   <viewport>
    <southwest>
     <lat>39.6447296</lat>
     <lng>19.1217000</lng>
    </southwest>
    <northeast>
     <lat>42.6611669</lat>
     <lng>21.0572394</lng>
    </northeast>
   </viewport>
   <bounds>
    <southwest>
     <lat>39.6447296</lat>
     <lng>19.1217000</lng>
    </southwest>
    <northeast>
     <lat>42.6611669</lat>
     <lng>21.0572394</lng>
    </northeast>
   </bounds>
  </geometry>
  <place_id>ChIJLUwnvfM7RRMR7juY1onlfAc</place_id>
 </result>
</GeocodeResponse>


<GeocodeResponse>
 <status>OK</status>
 <result>
  <type>locality</type>
  <type>political</type>
  <formatted_address>Tirana, Albania</formatted_address>
  <address_component>
   <long_name>Tirana</long_name>
   <short_name>Tirana</short_name>
   <type>locality</type>
   <type>political</type>
  </address_component>
  <address_component>
   <long_name>Tirana</long_name>
   <short_name>Tirana</short_name>
   <type>administrative_area_level_2</type>
   <type>political</type>
  </address_component>
  <address_component>
   <long_name>Tirana County</long_name>
   <short_name>Tirana County</short_name>
   <type>administrative_area_level_1</type>
   <type>political</type>
  </address_component>
  <address_component>
   <long_name>Albania</long_name>
   <short_name>AL</short_name>
   <type>country</type>
   <type>political</type>
  </address_component>
  <geometry>
   <location>
    <lat>41.3275459</lat>
    <lng>19.8186982</lng>
   </location>
   <location_type>APPROXIMATE</location_type>
   <viewport>
    <southwest>
     <lat>41.2951233</lat>
     <lng>19.7535682</lng>
    </southwest>
    <northeast>
     <lat>41.3668411</lat>
     <lng>19.8820782</lng>
    </northeast>
   </viewport>
   <bounds>
    <southwest>
     <lat>41.2951233</lat>
     <lng>19.7535682</lng>
    </southwest>
    <northeast>
     <lat>41.3668411</lat>
     <lng>19.8820782</lng>
    </northeast>
   </bounds>
  </geometry>
  <place_id>ChIJ28X6cAQxUBMRIDdlEK-SAAQ</place_id>
 </result>
</GeocodeResponse>


<GeocodeResponse>
 <status>OK</status>
 <result>
  <type>locality</type>
  <type>political</type>
  <formatted_address>Vösendorf, Austria</formatted_address>
  <address_component>
   <long_name>Vösendorf</long_name>
   <short_name>Vösendorf</short_name>
   <type>locality</type>
   <type>political</type>
  </address_component>
  <address_component>
   <long_name>Mödling District</long_name>
   <short_name>Mödling District</short_name>
   <type>administrative_area_level_2</type>
   <type>political</type>
  </address_component>
  <address_component>
   <long_name>Lower Austria</long_name>
   <short_name>Lower Austria</short_name>
   <type>administrative_area_level_1</type>
   <type>political</type>
  </address_component>
  <address_component>
   <long_name>Austria</long_name>
   <short_name>AT</short_name>
   <type>country</type>
   <type>political</type>
  </address_component>
  <geometry>
   <location>
    <lat>48.1222795</lat>
    <lng>16.3347827</lng>
   </location>
   <location_type>APPROXIMATE</location_type>
   <viewport>
    <southwest>
     <lat>48.1010300</lat>
     <lng>16.3109600</lng>
    </southwest>
    <northeast>
     <lat>48.1378600</lat>
     <lng>16.3660201</lng>
    </northeast>
   </viewport>
   <bounds>
    <southwest>
     <lat>48.1010300</lat>
     <lng>16.3109600</lng>
    </southwest>
    <northeast>
     <lat>48.1378600</lat>
     <lng>16.3660201</lng>
    </northeast>
   </bounds>
  </geometry>
  <place_id>ChIJqz5toDGpbUcR9CkBfA-RKQ0</place_id>
 </result>
</GeocodeResponse>


<GeocodeResponse>
 <status>OK</status>
 <result>
  <type>locality</type>
  <type>political</type>
  <formatted_address>Schwechat, Austria</formatted_address>
  <address_component>
   <long_name>Schwechat</long_name>
   <short_name>Schwechat</short_name>
   <type>locality</type>
   <type>political</type>
  </address_component>
  <address_component>
   <long_name>Wien-Umgebung District</long_name>
   <short_name>Wien-Umgebung District</short_name>
   <type>administrative_area_level_2</type>
   <type>political</type>
  </address_component>
  <address_component>
   <long_name>Lower Austria</long_name>
   <short_name>Lower Austria</short_name>
   <type>administrative_area_level_1</type>
   <type>political</type>
  </address_component>
  <address_component>
   <long_name>Austria</long_name>
   <short_name>AT</short_name>
   <type>country</type>
   <type>political</type>
  </address_component>
  <geometry>
   <location>
    <lat>48.1409268</lat>
    <lng>16.4763778</lng>
   </location>
   <location_type>APPROXIMATE</location_type>
   <viewport>
    <southwest>
     <lat>48.0889899</lat>
     <lng>16.4335401</lng>
    </southwest>
    <northeast>
     <lat>48.1589600</lat>
     <lng>16.5760299</lng>
    </northeast>
   </viewport>
   <bounds>
    <southwest>
     <lat>48.0889899</lat>
     <lng>16.4335401</lng>
    </southwest>
    <northeast>
     <lat>48.1589600</lat>
     <lng>16.5760299</lng>
    </northeast>
   </bounds>
  </geometry>
  <place_id>ChIJsVtVeNNUbEcRwEDmLVeXAAQ</place_id>
 </result>
</GeocodeResponse>


<GeocodeResponse>
 <status>OK</status>
 <result>
  <type>locality</type>
  <type>political</type>
  <formatted_address>Graz, Austria</formatted_address>
  <address_component>
   <long_name>Graz</long_name>
   <short_name>Graz</short_name>
   <type>locality</type>
   <type>political</type>
  </address_component>
  <address_component>
   <long_name>Graz</long_name>
   <short_name>Graz</short_name>
   <type>administrative_area_level_2</type>
   <type>political</type>
  </address_component>
  <address_component>
   <long_name>Styria</long_name>
   <short_name>Styria</short_name>
   <type>administrative_area_level_1</type>
   <type>political</type>
  </address_component>
  <address_component>
   <long_name>Austria</long_name>
   <short_name>AT</short_name>
   <type>country</type>
   <type>political</type>
  </address_component>
  <geometry>
   <location>
    <lat>47.0707140</lat>
    <lng>15.4395040</lng>
   </location>
   <location_type>APPROXIMATE</location_type>
   <viewport>
    <southwest>
     <lat>47.0120400</lat>
     <lng>15.3495299</lng>
    </southwest>
    <northeast>
     <lat>47.1351393</lat>
     <lng>15.5340499</lng>
    </northeast>
   </viewport>
   <bounds>
    <southwest>
     <lat>47.0120400</lat>
     <lng>15.3495299</lng>
    </southwest>
    <northeast>
     <lat>47.1351393</lat>
     <lng>15.5340499</lng>
    </northeast>
   </bounds>
  </geometry>
  <place_id>ChIJu2UwF4c1bkcRm93f0tGKjv4</place_id>
 </result>
</GeocodeResponse>


<GeocodeResponse>
 <status>OK</status>
 <result>
  <type>locality</type>
  <type>political</type>
  <formatted_address>Axams, Austria</formatted_address>
  <address_component>
   <long_name>Axams</long_name>
   <short_name>Axams</short_name>
   <type>locality</type>
   <type>political</type>
  </address_component>
  <address_component>
   <long_name>Innsbruck-Land District</long_name>
   <short_name>Innsbruck-Land District</short_name>
   <type>administrative_area_level_2</type>
   <type>political</type>
  </address_component>
  <address_component>
   <long_name>Tyrol</long_name>
   <short_name>Tyrol</short_name>
   <type>administrative_area_level_1</type>
   <type>political</type>
  </address_component>
  <address_component>
   <long_name>Austria</long_name>
   <short_name>AT</short_name>
   <type>country</type>
   <type>political</type>
  </address_component>
  <geometry>
   <location>
    <lat>47.2303585</lat>
    <lng>11.2795490</lng>
   </location>
   <location_type>APPROXIMATE</location_type>
   <viewport>
    <southwest>
     <lat>47.1707800</lat>
     <lng>11.2536199</lng>
    </southwest>
    <northeast>
     <lat>47.2467400</lat>
     <lng>11.3250901</lng>
    </northeast>
   </viewport>
   <bounds>
    <southwest>
     <lat>47.1707800</lat>
     <lng>11.2536199</lng>
    </southwest>
    <northeast>
     <lat>47.2467400</lat>
     <lng>11.3250901</lng>
    </northeast>
   </bounds>
  </geometry>
  <place_id>ChIJh2dSRDIVnUcRRSbkFw4K6nw</place_id>
 </result>
</GeocodeResponse>


<GeocodeResponse>
 <status>OK</status>
 <result>
  <type>locality</type>
  <type>political</type>
  <formatted_address>Innsbruck, Austria</formatted_address>
  <address_component>
   <long_name>Innsbruck</long_name>
   <short_name>Innsbruck</short_name>
   <type>locality</type>
   <type>political</type>
  </address_component>
  <address_component>
   <long_name>Innsbruck</long_name>
   <short_name>Innsbruck</short_name>
   <type>administrative_area_level_2</type>
   <type>political</type>
  </address_component>
  <address_component>
   <long_name>Tyrol</long_name>
   <short_name>Tyrol</short_name>
   <type>administrative_area_level_1</type>
   <type>political</type>
  </address_component>
  <address_component>
   <long_name>Austria</long_name>
   <short_name>AT</short_name>
   <type>country</type>
   <type>political</type>
  </address_component>
  <geometry>
   <location>
    <lat>47.2692124</lat>
    <lng>11.4041024</lng>
   </location>
   <location_type>APPROXIMATE</location_type>
   <viewport>
    <southwest>
     <lat>47.2109800</lat>
     <lng>11.3016499</lng>
    </southwest>
    <northeast>
     <lat>47.3599301</lat>
     <lng>11.4559300</lng>
    </northeast>
   </viewport>
   <bounds>
    <southwest>
     <lat>47.2109800</lat>
     <lng>11.3016499</lng>
    </southwest>
    <northeast>
     <lat>47.3599301</lat>
     <lng>11.4559300</lng>
    </northeast>
   </bounds>
  </geometry>
  <place_id>ChIJc8r44c9unUcRDZsdKH0cIJ0</place_id>
 </result>
</GeocodeResponse>


<GeocodeResponse>
 <status>OK</status>
 <result>
  <type>administrative_area_level_1</type>
  <type>political</type>
  <formatted_address>Carinthia, Austria</formatted_address>
  <address_component>
   <long_name>Carinthia</long_name>
   <short_name>Carinthia</short_name>
   <type>administrative_area_level_1</type>
   <type>political</type>
  </address_component>
  <address_component>
   <long_name>Austria</long_name>
   <short_name>AT</short_name>
   <type>country</type>
   <type>political</type>
  </address_component>
  <geometry>
   <location>
    <lat>46.7222030</lat>
    <lng>14.1805882</lng>
   </location>
   <location_type>APPROXIMATE</location_type>
   <viewport>
    <southwest>
     <lat>46.3723000</lat>
     <lng>12.6563901</lng>
    </southwest>
    <northeast>
     <lat>47.1313100</lat>
     <lng>15.0651401</lng>
    </northeast>
   </viewport>
   <bounds>
    <southwest>
     <lat>46.3723000</lat>
     <lng>12.6563901</lng>
    </southwest>
    <northeast>
     <lat>47.1313100</lat>
     <lng>15.0651401</lng>
    </northeast>
   </bounds>
  </geometry>
  <place_id>ChIJF_WJpph0cEcRP8merT25Wtk</place_id>
 </result>
</GeocodeResponse>


<GeocodeResponse>
 <status>OK</status>
 <result>
  <type>locality</type>
  <type>political</type>
  <formatted_address>Vienna, Austria</formatted_address>
  <address_component>
   <long_name>Vienna</long_name>
   <short_name>Vienna</short_name>
   <type>locality</type>
   <type>political</type>
  </address_component>
  <address_component>
   <long_name>Vienna</long_name>
   <short_name>Vienna</short_name>
   <type>administrative_area_level_1</type>
   <type>political</type>
  </address_component>
  <address_component>
   <long_name>Austria</long_name>
   <short_name>AT</short_name>
   <type>country</type>
   <type>political</type>
  </address_component>
  <geometry>
   <location>
    <lat>48.2081743</lat>
    <lng>16.3738189</lng>
   </location>
   <location_type>APPROXIMATE</location_type>
   <viewport>
    <southwest>
     <lat>48.1182699</lat>
     <lng>16.1826200</lng>
    </southwest>
    <northeast>
     <lat>48.3230999</lat>
     <lng>16.5774999</lng>
    </northeast>
   </viewport>
   <bounds>
    <southwest>
     <lat>48.1182699</lat>
     <lng>16.1826200</lng>
    </southwest>
    <northeast>
     <lat>48.3230999</lat>
     <lng>16.5774999</lng>
    </northeast>
   </bounds>
  </geometry>
  <place_id>ChIJn8o2UZ4HbUcRRluiUYrlwv0</place_id>
 </result>
</GeocodeResponse>


<GeocodeResponse>
 <status>OK</status>
 <result>
  <type>locality</type>
  <type>political</type>
  <formatted_address>Minsk, Belarus</formatted_address>
  <address_component>
   <long_name>Minsk</long_name>
   <short_name>Minsk</short_name>
   <type>locality</type>
   <type>political</type>
  </address_component>
  <address_component>
   <long_name>Minsk Region</long_name>
   <short_name>Minsk Region</short_name>
   <type>administrative_area_level_1</type>
   <type>political</type>
  </address_component>
  <address_component>
   <long_name>Belarus</long_name>
   <short_name>BY</short_name>
   <type>country</type>
   <type>political</type>
  </address_component>
  <geometry>
   <location>
    <lat>53.9045398</lat>
    <lng>27.5615244</lng>
   </location>
   <location_type>APPROXIMATE</location_type>
   <viewport>
    <southwest>
     <lat>53.7961897</lat>
     <lng>27.3753547</lng>
    </southwest>
    <northeast>
     <lat>53.9715871</lat>
     <lng>28.0641033</lng>
    </northeast>
   </viewport>
   <bounds>
    <southwest>
     <lat>53.7961897</lat>
     <lng>27.3753547</lng>
    </southwest>
    <northeast>
     <lat>53.9715871</lat>
     <lng>28.0641033</lng>
    </northeast>
   </bounds>
  </geometry>
  <place_id>ChIJ02oeW9PP20YR2XC13VO4YQs</place_id>
 </result>
</GeocodeResponse>


<GeocodeResponse>
 <status>OK</status>
 <result>
  <type>locality</type>
  <type>political</type>
  <formatted_address>Bruges, Belgium</formatted_address>
  <address_component>
   <long_name>Bruges</long_name>
   <short_name>Bruges</short_name>
   <type>locality</type>
   <type>political</type>
  </address_component>
  <address_component>
   <long_name>West Flanders</long_name>
   <short_name>WV</short_name>
   <type>administrative_area_level_2</type>
   <type>political</type>
  </address_component>
  <address_component>
   <long_name>Flanders</long_name>
   <short_name>Flanders</short_name>
   <type>administrative_area_level_1</type>
   <type>political</type>
  </address_component>
  <address_component>
   <long_name>Belgium</long_name>
   <short_name>BE</short_name>
   <type>country</type>
   <type>political</type>
  </address_component>
  <geometry>
   <location>
    <lat>51.2093480</lat>
    <lng>3.2246995</lng>
   </location>
   <location_type>APPROXIMATE</location_type>
   <viewport>
    <southwest>
     <lat>51.1580500</lat>
     <lng>3.1341401</lng>
    </southwest>
    <northeast>
     <lat>51.3632982</lat>
     <lng>3.3101500</lng>
    </northeast>
   </viewport>
   <bounds>
    <southwest>
     <lat>51.1580500</lat>
     <lng>3.1341401</lng>
    </southwest>
    <northeast>
     <lat>51.3632982</lat>
     <lng>3.3101500</lng>
    </northeast>
   </bounds>
  </geometry>
  <place_id>ChIJDUIewdBQw0cR902DyFrzoho</place_id>
 </result>
</GeocodeResponse>


<GeocodeResponse>
 <status>OK</status>
 <result>
  <type>locality</type>
  <type>political</type>
  <formatted_address>Waterloo, Belgium</formatted_address>
  <address_component>
   <long_name>Waterloo</long_name>
   <short_name>Waterloo</short_name>
   <type>locality</type>
   <type>political</type>
  </address_component>
  <address_component>
   <long_name>Walloon Brabant</long_name>
   <short_name>BW</short_name>
   <type>administrative_area_level_2</type>
   <type>political</type>
  </address_component>
  <address_component>
   <long_name>Walloon Region</long_name>
   <short_name>WAL</short_name>
   <type>administrative_area_level_1</type>
   <type>political</type>
  </address_component>
  <address_component>
   <long_name>Belgium</long_name>
   <short_name>BE</short_name>
   <type>country</type>
   <type>political</type>
  </address_component>
  <geometry>
   <location>
    <lat>50.7146900</lat>
    <lng>4.3991000</lng>
   </location>
   <location_type>APPROXIMATE</location_type>
   <viewport>
    <southwest>
     <lat>50.6709000</lat>
     <lng>4.3548601</lng>
    </southwest>
    <northeast>
     <lat>50.7359101</lat>
     <lng>4.4411800</lng>
    </northeast>
   </viewport>
   <bounds>
    <southwest>
     <lat>50.6709000</lat>
     <lng>4.3548601</lng>
    </southwest>
    <northeast>
     <lat>50.7359101</lat>
     <lng>4.4411800</lng>
    </northeast>
   </bounds>
  </geometry>
  <place_id>ChIJ2SF_LcPRw0cRgHJNL6uZAAQ</place_id>
 </result>
</GeocodeResponse>


<GeocodeResponse>
 <status>OK</status>
 <result>
  <type>locality</type>
  <type>political</type>
  <formatted_address>Mechelen, Belgium</formatted_address>
  <address_component>
   <long_name>Mechelen</long_name>
   <short_name>Mechelen</short_name>
   <type>locality</type>
   <type>political</type>
  </address_component>
  <address_component>
   <long_name>Antwerp</long_name>
   <short_name>AN</short_name>
   <type>administrative_area_level_2</type>
   <type>political</type>
  </address_component>
  <address_component>
   <long_name>Flanders</long_name>
   <short_name>Flanders</short_name>
   <type>administrative_area_level_1</type>
   <type>political</type>
  </address_component>
  <address_component>
   <long_name>Belgium</long_name>
   <short_name>BE</short_name>
   <type>country</type>
   <type>political</type>
  </address_component>
  <geometry>
   <location>
    <lat>51.0258761</lat>
    <lng>4.4775362</lng>
   </location>
   <location_type>APPROXIMATE</location_type>
   <viewport>
    <southwest>
     <lat>50.9911199</lat>
     <lng>4.3701001</lng>
    </southwest>
    <northeast>
     <lat>51.0785900</lat>
     <lng>4.5489300</lng>
    </northeast>
   </viewport>
   <bounds>
    <southwest>
     <lat>50.9911199</lat>
     <lng>4.3701001</lng>
    </southwest>
    <northeast>
     <lat>51.0785900</lat>
     <lng>4.5489300</lng>
    </northeast>
   </bounds>
  </geometry>
  <place_id>ChIJSSCFUJTlw0cRAFhNL6uZAAQ</place_id>
 </result>
</GeocodeResponse>


<GeocodeResponse>
 <status>OK</status>
 <result>
  <type>locality</type>
  <type>political</type>
  <formatted_address>Antwerp, Belgium</formatted_address>
  <address_component>
   <long_name>Antwerp</long_name>
   <short_name>Antwerp</short_name>
   <type>locality</type>
   <type>political</type>
  </address_component>
  <address_component>
   <long_name>Antwerp</long_name>
   <short_name>AN</short_name>
   <type>administrative_area_level_2</type>
   <type>political</type>
  </address_component>
  <address_component>
   <long_name>Flanders</long_name>
   <short_name>Flanders</short_name>
   <type>administrative_area_level_1</type>
   <type>political</type>
  </address_component>
  <address_component>
   <long_name>Belgium</long_name>
   <short_name>BE</short_name>
   <type>country</type>
   <type>political</type>
  </address_component>
  <geometry>
   <location>
    <lat>51.2194475</lat>
    <lng>4.4024643</lng>
   </location>
   <location_type>APPROXIMATE</location_type>
   <viewport>
    <southwest>
     <lat>51.1433400</lat>
     <lng>4.2176001</lng>
    </southwest>
    <northeast>
     <lat>51.3774301</lat>
     <lng>4.4978400</lng>
    </northeast>
   </viewport>
   <bounds>
    <southwest>
     <lat>51.1433400</lat>
     <lng>4.2176001</lng>
    </southwest>
    <northeast>
     <lat>51.3774301</lat>
     <lng>4.4978400</lng>
    </northeast>
   </bounds>
  </geometry>
  <place_id>ChIJfYjDv472w0cRuIqogoRErz4</place_id>
 </result>
</GeocodeResponse>


<GeocodeResponse>
 <status>OK</status>
 <result>
  <type>locality</type>
  <type>political</type>
  <formatted_address>Namur, Belgium</formatted_address>
  <address_component>
   <long_name>Namur</long_name>
   <short_name>Namur</short_name>
   <type>locality</type>
   <type>political</type>
  </address_component>
  <address_component>
   <long_name>Province of Namur</long_name>
   <short_name>NA</short_name>
   <type>administrative_area_level_2</type>
   <type>political</type>
  </address_component>
  <address_component>
   <long_name>Walloon Region</long_name>
   <short_name>WAL</short_name>
   <type>administrative_area_level_1</type>
   <type>political</type>
  </address_component>
  <address_component>
   <long_name>Belgium</long_name>
   <short_name>BE</short_name>
   <type>country</type>
   <type>political</type>
  </address_component>
  <geometry>
   <location>
    <lat>50.4673883</lat>
    <lng>4.8719854</lng>
   </location>
   <location_type>APPROXIMATE</location_type>
   <viewport>
    <southwest>
     <lat>50.3873800</lat>
     <lng>4.7229000</lng>
    </southwest>
    <northeast>
     <lat>50.5312201</lat>
     <lng>4.9839800</lng>
    </northeast>
   </viewport>
   <bounds>
    <southwest>
     <lat>50.3873800</lat>
     <lng>4.7229000</lng>
    </southwest>
    <northeast>
     <lat>50.5312201</lat>
     <lng>4.9839800</lng>
    </northeast>
   </bounds>
  </geometry>
  <place_id>ChIJP2UsDG2ZwUcRBVIWxLYmVsE</place_id>
 </result>
</GeocodeResponse>


<GeocodeResponse>
 <status>OK</status>
 <result>
  <type>locality</type>
  <type>political</type>
  <formatted_address>2650 Edegem, Belgium</formatted_address>
  <address_component>
   <long_name>Edegem</long_name>
   <short_name>Edegem</short_name>
   <type>locality</type>
   <type>political</type>
  </address_component>
  <address_component>
   <long_name>Antwerp</long_name>
   <short_name>AN</short_name>
   <type>administrative_area_level_2</type>
   <type>political</type>
  </address_component>
  <address_component>
   <long_name>Flanders</long_name>
   <short_name>Flanders</short_name>
   <type>administrative_area_level_1</type>
   <type>political</type>
  </address_component>
  <address_component>
   <long_name>Belgium</long_name>
   <short_name>BE</short_name>
   <type>country</type>
   <type>political</type>
  </address_component>
  <address_component>
   <long_name>2650</long_name>
   <short_name>2650</short_name>
   <type>postal_code</type>
  </address_component>
  <geometry>
   <location>
    <lat>51.1559541</lat>
    <lng>4.4318937</lng>
   </location>
   <location_type>APPROXIMATE</location_type>
   <viewport>
    <southwest>
     <lat>51.1445701</lat>
     <lng>4.3973300</lng>
    </southwest>
    <northeast>
     <lat>51.1731699</lat>
     <lng>4.4635599</lng>
    </northeast>
   </viewport>
   <bounds>
    <southwest>
     <lat>51.1445701</lat>
     <lng>4.3973300</lng>
    </southwest>
    <northeast>
     <lat>51.1731699</lat>
     <lng>4.4635599</lng>
    </northeast>
   </bounds>
  </geometry>
  <place_id>ChIJ9wzQXZnww0cR0TQfvVEv1IY</place_id>
 </result>
</GeocodeResponse>


<GeocodeResponse>
 <status>OK</status>
 <result>
  <type>administrative_area_level_1</type>
  <type>locality</type>
  <type>political</type>
  <formatted_address>Brussels, Belgium</formatted_address>
  <address_component>
   <long_name>Brussels</long_name>
   <short_name>Brussels</short_name>
   <type>administrative_area_level_1</type>
   <type>locality</type>
   <type>political</type>
  </address_component>
  <address_component>
   <long_name>Belgium</long_name>
   <short_name>BE</short_name>
   <type>country</type>
   <type>political</type>
  </address_component>
  <geometry>
   <location>
    <lat>50.8503463</lat>
    <lng>4.3517211</lng>
   </location>
   <location_type>APPROXIMATE</location_type>
   <viewport>
    <southwest>
     <lat>50.7636900</lat>
     <lng>4.2446001</lng>
    </southwest>
    <northeast>
     <lat>50.9137100</lat>
     <lng>4.4822099</lng>
    </northeast>
   </viewport>
   <bounds>
    <southwest>
     <lat>50.7636900</lat>
     <lng>4.2446001</lng>
    </southwest>
    <northeast>
     <lat>50.9137100</lat>
     <lng>4.4822099</lng>
    </northeast>
   </bounds>
  </geometry>
  <place_id>ChIJ_58PdIbEw0cRMIBML6uZAAE</place_id>
 </result>
</GeocodeResponse>


<GeocodeResponse>
 <status>OK</status>
 <result>
  <type>locality</type>
  <type>political</type>
  <formatted_address>1332 Genval, Belgium</formatted_address>
  <address_component>
   <long_name>Genval</long_name>
   <short_name>Genval</short_name>
   <type>locality</type>
   <type>political</type>
  </address_component>
  <address_component>
   <long_name>Brabant Wallon</long_name>
   <short_name>BW</short_name>
   <type>administrative_area_level_2</type>
   <type>political</type>
  </address_component>
  <address_component>
   <long_name>Wallonie</long_name>
   <short_name>Wallonie</short_name>
   <type>administrative_area_level_1</type>
   <type>political</type>
  </address_component>
  <address_component>
   <long_name>Belgium</long_name>
   <short_name>BE</short_name>
   <type>country</type>
   <type>political</type>
  </address_component>
  <address_component>
   <long_name>1332</long_name>
   <short_name>1332</short_name>
   <type>postal_code</type>
  </address_component>
  <geometry>
   <location>
    <lat>50.7211000</lat>
    <lng>4.4938800</lng>
   </location>
   <location_type>APPROXIMATE</location_type>
   <viewport>
    <southwest>
     <lat>50.7140354</lat>
     <lng>4.4778726</lng>
    </southwest>
    <northeast>
     <lat>50.7281635</lat>
     <lng>4.5098874</lng>
    </northeast>
   </viewport>
  </geometry>
  <place_id>ChIJ9ZqK2SnXw0cRc3O73vY11bE</place_id>
 </result>
</GeocodeResponse>


<GeocodeResponse>
 <status>OK</status>
 <result>
  <type>locality</type>
  <type>political</type>
  <formatted_address>Mostar 88000, Bosnia and Herzegovina</formatted_address>
  <address_component>
   <long_name>Mostar</long_name>
   <short_name>Mostar</short_name>
   <type>locality</type>
   <type>political</type>
  </address_component>
  <address_component>
   <long_name>Herzegovina-Neretva Canton</long_name>
   <short_name>Herzegovina-Neretva Canton</short_name>
   <type>administrative_area_level_2</type>
   <type>political</type>
  </address_component>
  <address_component>
   <long_name>Federation of Bosnia and Herzegovina</long_name>
   <short_name>Federation of Bosnia and Herzegovina</short_name>
   <type>administrative_area_level_1</type>
   <type>political</type>
  </address_component>
  <address_component>
   <long_name>Bosnia and Herzegovina</long_name>
   <short_name>BA</short_name>
   <type>country</type>
   <type>political</type>
  </address_component>
  <address_component>
   <long_name>88000</long_name>
   <short_name>88000</short_name>
   <type>postal_code</type>
  </address_component>
  <geometry>
   <location>
    <lat>43.3437748</lat>
    <lng>17.8077578</lng>
   </location>
   <location_type>APPROXIMATE</location_type>
   <viewport>
    <southwest>
     <lat>43.3116892</lat>
     <lng>17.7822304</lng>
    </southwest>
    <northeast>
     <lat>43.3674188</lat>
     <lng>17.8602506</lng>
    </northeast>
   </viewport>
   <bounds>
    <southwest>
     <lat>43.3116892</lat>
     <lng>17.7822304</lng>
    </southwest>
    <northeast>
     <lat>43.3674188</lat>
     <lng>17.8602506</lng>
    </northeast>
   </bounds>
  </geometry>
  <place_id>ChIJqUBjO6RDSxMRWnzj1LIyTwE</place_id>
 </result>
</GeocodeResponse>


<GeocodeResponse>
 <status>OK</status>
 <result>
  <type>locality</type>
  <type>political</type>
  <formatted_address>Neum, Bosnia and Herzegovina</formatted_address>
  <address_component>
   <long_name>Neum</long_name>
   <short_name>Neum</short_name>
   <type>locality</type>
   <type>political</type>
  </address_component>
  <address_component>
   <long_name>Herzegovina-Neretva Canton</long_name>
   <short_name>Herzegovina-Neretva Canton</short_name>
   <type>administrative_area_level_2</type>
   <type>political</type>
  </address_component>
  <address_component>
   <long_name>Federation of Bosnia and Herzegovina</long_name>
   <short_name>Federation of Bosnia and Herzegovina</short_name>
   <type>administrative_area_level_1</type>
   <type>political</type>
  </address_component>
  <address_component>
   <long_name>Bosnia and Herzegovina</long_name>
   <short_name>BA</short_name>
   <type>country</type>
   <type>political</type>
  </address_component>
  <geometry>
   <location>
    <lat>42.9230437</lat>
    <lng>17.6185727</lng>
   </location>
   <location_type>APPROXIMATE</location_type>
   <viewport>
    <southwest>
     <lat>42.9127688</lat>
     <lng>17.5868154</lng>
    </southwest>
    <northeast>
     <lat>42.9349746</lat>
     <lng>17.6423477</lng>
    </northeast>
   </viewport>
   <bounds>
    <southwest>
     <lat>42.9127688</lat>
     <lng>17.5868154</lng>
    </southwest>
    <northeast>
     <lat>42.9349746</lat>
     <lng>17.6423477</lng>
    </northeast>
   </bounds>
  </geometry>
  <place_id>ChIJZZ-yqrSjSxMROisXvjjjWgk</place_id>
 </result>
</GeocodeResponse>


<GeocodeResponse>
 <status>OK</status>
 <result>
  <type>locality</type>
  <type>political</type>
  <formatted_address>Sofia, Bulgaria</formatted_address>
  <address_component>
   <long_name>Sofia</long_name>
   <short_name>Sofia</short_name>
   <type>locality</type>
   <type>political</type>
  </address_component>
  <address_component>
   <long_name>Sofia City Province</long_name>
   <short_name>Sofia City Province</short_name>
   <type>administrative_area_level_1</type>
   <type>political</type>
  </address_component>
  <address_component>
   <long_name>Bulgaria</long_name>
   <short_name>BG</short_name>
   <type>country</type>
   <type>political</type>
  </address_component>
  <geometry>
   <location>
    <lat>42.6977082</lat>
    <lng>23.3218675</lng>
   </location>
   <location_type>APPROXIMATE</location_type>
   <viewport>
    <southwest>
     <lat>42.6030891</lat>
     <lng>23.1909885</lng>
    </southwest>
    <northeast>
     <lat>42.7877752</lat>
     <lng>23.4569049</lng>
    </northeast>
   </viewport>
   <bounds>
    <southwest>
     <lat>42.6030891</lat>
     <lng>23.1909885</lng>
    </southwest>
    <northeast>
     <lat>42.7877752</lat>
     <lng>23.4569049</lng>
    </northeast>
   </bounds>
  </geometry>
  <place_id>ChIJ9Xsxy4KGqkARYF6_aRKgAAQ</place_id>
 </result>
</GeocodeResponse>


<GeocodeResponse>
 <status>OK</status>
 <result>
  <type>locality</type>
  <type>political</type>
  <formatted_address>Nessebar, Bulgaria</formatted_address>
  <address_component>
   <long_name>Nessebar</long_name>
   <short_name>Nessebar</short_name>
   <type>locality</type>
   <type>political</type>
  </address_component>
  <address_component>
   <long_name>Burgas</long_name>
   <short_name>Burgas</short_name>
   <type>administrative_area_level_1</type>
   <type>political</type>
  </address_component>
  <address_component>
   <long_name>Bulgaria</long_name>
   <short_name>BG</short_name>
   <type>country</type>
   <type>political</type>
  </address_component>
  <geometry>
   <location>
    <lat>42.6601365</lat>
    <lng>27.7205593</lng>
   </location>
   <location_type>APPROXIMATE</location_type>
   <viewport>
    <southwest>
     <lat>42.6457263</lat>
     <lng>27.6829505</lng>
    </southwest>
    <northeast>
     <lat>42.6664503</lat>
     <lng>27.7411362</lng>
    </northeast>
   </viewport>
   <bounds>
    <southwest>
     <lat>42.6457263</lat>
     <lng>27.6829505</lng>
    </southwest>
    <northeast>
     <lat>42.6664503</lat>
     <lng>27.7411362</lng>
    </northeast>
   </bounds>
  </geometry>
  <place_id>ChIJq-4YbV2fpkARE98qVDhzD2s</place_id>
 </result>
</GeocodeResponse>


<GeocodeResponse>
 <status>OK</status>
 <result>
  <type>locality</type>
  <type>political</type>
  <formatted_address>Pomorie, Bulgaria</formatted_address>
  <address_component>
   <long_name>Pomorie</long_name>
   <short_name>Pomorie</short_name>
   <type>locality</type>
   <type>political</type>
  </address_component>
  <address_component>
   <long_name>Burgas</long_name>
   <short_name>Burgas</short_name>
   <type>administrative_area_level_1</type>
   <type>political</type>
  </address_component>
  <address_component>
   <long_name>Bulgaria</long_name>
   <short_name>BG</short_name>
   <type>country</type>
   <type>political</type>
  </address_component>
  <geometry>
   <location>
    <lat>42.5680485</lat>
    <lng>27.6155705</lng>
   </location>
   <location_type>APPROXIMATE</location_type>
   <viewport>
    <southwest>
     <lat>42.5510945</lat>
     <lng>27.5945891</lng>
    </southwest>
    <northeast>
     <lat>42.5854254</lat>
     <lng>27.6526184</lng>
    </northeast>
   </viewport>
   <bounds>
    <southwest>
     <lat>42.5510945</lat>
     <lng>27.5945891</lng>
    </southwest>
    <northeast>
     <lat>42.5854254</lat>
     <lng>27.6526184</lng>
    </northeast>
   </bounds>
  </geometry>
  <place_id>ChIJa9sNj-SXpkARlYcTW159vJA</place_id>
 </result>
</GeocodeResponse>


<GeocodeResponse>
 <status>OK</status>
 <result>
  <type>locality</type>
  <type>political</type>
  <formatted_address>Burgas, Bulgaria</formatted_address>
  <address_component>
   <long_name>Burgas</long_name>
   <short_name>Burgas</short_name>
   <type>locality</type>
   <type>political</type>
  </address_component>
  <address_component>
   <long_name>Burgas</long_name>
   <short_name>Burgas</short_name>
   <type>administrative_area_level_1</type>
   <type>political</type>
  </address_component>
  <address_component>
   <long_name>Bulgaria</long_name>
   <short_name>BG</short_name>
   <type>country</type>
   <type>political</type>
  </address_component>
  <geometry>
   <location>
    <lat>42.5047926</lat>
    <lng>27.4626361</lng>
   </location>
   <location_type>APPROXIMATE</location_type>
   <viewport>
    <southwest>
     <lat>42.4391223</lat>
     <lng>27.3580761</lng>
    </southwest>
    <northeast>
     <lat>42.6139216</lat>
     <lng>27.5458556</lng>
    </northeast>
   </viewport>
   <bounds>
    <southwest>
     <lat>42.4391223</lat>
     <lng>27.3580761</lng>
    </southwest>
    <northeast>
     <lat>42.6139216</lat>
     <lng>27.5458556</lng>
    </northeast>
   </bounds>
  </geometry>
  <place_id>ChIJkZ38-WaSpkAR8E2_aRKgAAQ</place_id>
 </result>
</GeocodeResponse>


<GeocodeResponse>
 <status>OK</status>
 <result>
  <type>locality</type>
  <type>political</type>
  <formatted_address>Plovdiv, Bulgaria</formatted_address>
  <address_component>
   <long_name>Plovdiv</long_name>
   <short_name>Plovdiv</short_name>
   <type>locality</type>
   <type>political</type>
  </address_component>
  <address_component>
   <long_name>Plovdiv Province</long_name>
   <short_name>Plovdiv Province</short_name>
   <type>administrative_area_level_1</type>
   <type>political</type>
  </address_component>
  <address_component>
   <long_name>Bulgaria</long_name>
   <short_name>BG</short_name>
   <type>country</type>
   <type>political</type>
  </address_component>
  <geometry>
   <location>
    <lat>42.1354079</lat>
    <lng>24.7452904</lng>
   </location>
   <location_type>APPROXIMATE</location_type>
   <viewport>
    <southwest>
     <lat>42.0900086</lat>
     <lng>24.6577202</lng>
    </southwest>
    <northeast>
     <lat>42.1982332</lat>
     <lng>24.8240283</lng>
    </northeast>
   </viewport>
   <bounds>
    <southwest>
     <lat>42.0900086</lat>
     <lng>24.6577202</lng>
    </southwest>
    <northeast>
     <lat>42.1982332</lat>
     <lng>24.8240283</lng>
    </northeast>
   </bounds>
  </geometry>
  <place_id>ChIJPXZIogjRrBQRoDgTb_rRcGQ</place_id>
 </result>
</GeocodeResponse>


<GeocodeResponse>
 <status>OK</status>
 <result>
  <type>locality</type>
  <type>political</type>
  <formatted_address>2770 Bansko, Bulgaria</formatted_address>
  <address_component>
   <long_name>Bansko</long_name>
   <short_name>Bansko</short_name>
   <type>locality</type>
   <type>political</type>
  </address_component>
  <address_component>
   <long_name>Blagoevgrad Province</long_name>
   <short_name>Blagoevgrad Province</short_name>
   <type>administrative_area_level_1</type>
   <type>political</type>
  </address_component>
  <address_component>
   <long_name>Bulgaria</long_name>
   <short_name>BG</short_name>
   <type>country</type>
   <type>political</type>
  </address_component>
  <address_component>
   <long_name>2770</long_name>
   <short_name>2770</short_name>
   <type>postal_code</type>
  </address_component>
  <geometry>
   <location>
    <lat>41.8404241</lat>
    <lng>23.4856530</lng>
   </location>
   <location_type>APPROXIMATE</location_type>
   <viewport>
    <southwest>
     <lat>41.8221672</lat>
     <lng>23.4753046</lng>
    </southwest>
    <northeast>
     <lat>41.8492321</lat>
     <lng>23.4985260</lng>
    </northeast>
   </viewport>
   <bounds>
    <southwest>
     <lat>41.8221672</lat>
     <lng>23.4753046</lng>
    </southwest>
    <northeast>
     <lat>41.8492321</lat>
     <lng>23.4985260</lng>
    </northeast>
   </bounds>
  </geometry>
  <place_id>ChIJJTxJRrmuqxQRx4X-SaDqsNY</place_id>
 </result>
</GeocodeResponse>


<GeocodeResponse>
 <status>OK</status>
 <result>
  <type>locality</type>
  <type>political</type>
  <formatted_address>Varna, Bulgaria</formatted_address>
  <address_component>
   <long_name>Varna</long_name>
   <short_name>Varna</short_name>
   <type>locality</type>
   <type>political</type>
  </address_component>
  <address_component>
   <long_name>Varna</long_name>
   <short_name>Varna</short_name>
   <type>administrative_area_level_1</type>
   <type>political</type>
  </address_component>
  <address_component>
   <long_name>Bulgaria</long_name>
   <short_name>BG</short_name>
   <type>country</type>
   <type>political</type>
  </address_component>
  <geometry>
   <location>
    <lat>43.2140504</lat>
    <lng>27.9147333</lng>
   </location>
   <location_type>APPROXIMATE</location_type>
   <viewport>
    <southwest>
     <lat>43.1002294</lat>
     <lng>27.8299093</lng>
    </southwest>
    <northeast>
     <lat>43.3094528</lat>
     <lng>28.0559078</lng>
    </northeast>
   </viewport>
   <bounds>
    <southwest>
     <lat>43.1002294</lat>
     <lng>27.8299093</lng>
    </southwest>
    <northeast>
     <lat>43.3094528</lat>
     <lng>28.0559078</lng>
    </northeast>
   </bounds>
  </geometry>
  <place_id>ChIJodfzqotTpEARfIulcRyUJ1c</place_id>
 </result>
</GeocodeResponse>


<GeocodeResponse>
 <status>OK</status>
 <result>
  <type>locality</type>
  <type>political</type>
  <formatted_address>Umag, Croatia</formatted_address>
  <address_component>
   <long_name>Umag</long_name>
   <short_name>Umag</short_name>
   <type>locality</type>
   <type>political</type>
  </address_component>
  <address_component>
   <long_name>Općina Umag</long_name>
   <short_name>Općina Umag</short_name>
   <type>administrative_area_level_2</type>
   <type>political</type>
  </address_component>
  <address_component>
   <long_name>Istria County</long_name>
   <short_name>Istria County</short_name>
   <type>administrative_area_level_1</type>
   <type>political</type>
  </address_component>
  <address_component>
   <long_name>Croatia</long_name>
   <short_name>HR</short_name>
   <type>country</type>
   <type>political</type>
  </address_component>
  <geometry>
   <location>
    <lat>45.4372062</lat>
    <lng>13.5257205</lng>
   </location>
   <location_type>APPROXIMATE</location_type>
   <viewport>
    <southwest>
     <lat>45.4111618</lat>
     <lng>13.5082921</lng>
    </southwest>
    <northeast>
     <lat>45.4483177</lat>
     <lng>13.5562517</lng>
    </northeast>
   </viewport>
   <bounds>
    <southwest>
     <lat>45.4111618</lat>
     <lng>13.5082921</lng>
    </southwest>
    <northeast>
     <lat>45.4483177</lat>
     <lng>13.5562517</lng>
    </northeast>
   </bounds>
  </geometry>
  <place_id>ChIJY7yu3jp9e0cR0NUBsF3OLao</place_id>
 </result>
</GeocodeResponse>


<GeocodeResponse>
 <status>OK</status>
 <result>
  <type>locality</type>
  <type>political</type>
  <formatted_address>Trogir, Croatia</formatted_address>
  <address_component>
   <long_name>Trogir</long_name>
   <short_name>Trogir</short_name>
   <type>locality</type>
   <type>political</type>
  </address_component>
  <address_component>
   <long_name>Općina Trogir</long_name>
   <short_name>Općina Trogir</short_name>
   <type>administrative_area_level_2</type>
   <type>political</type>
  </address_component>
  <address_component>
   <long_name>Split-Dalmatia County</long_name>
   <short_name>Split-Dalmatia County</short_name>
   <type>administrative_area_level_1</type>
   <type>political</type>
  </address_component>
  <address_component>
   <long_name>Croatia</long_name>
   <short_name>HR</short_name>
   <type>country</type>
   <type>political</type>
  </address_component>
  <geometry>
   <location>
    <lat>43.5163870</lat>
    <lng>16.2501894</lng>
   </location>
   <location_type>APPROXIMATE</location_type>
   <viewport>
    <southwest>
     <lat>43.5050173</lat>
     <lng>16.2342233</lng>
    </southwest>
    <northeast>
     <lat>43.5508701</lat>
     <lng>16.2836295</lng>
    </northeast>
   </viewport>
   <bounds>
    <southwest>
     <lat>43.5050173</lat>
     <lng>16.2342233</lng>
    </southwest>
    <northeast>
     <lat>43.5508701</lat>
     <lng>16.2836295</lng>
    </northeast>
   </bounds>
  </geometry>
  <place_id>ChIJ90LdkwlCNRMRql2bAEt1lYM</place_id>
 </result>
</GeocodeResponse>


<GeocodeResponse>
 <status>OK</status>
 <result>
  <type>locality</type>
  <type>political</type>
  <formatted_address>21300, Makarska, Croatia</formatted_address>
  <address_component>
   <long_name>Makarska</long_name>
   <short_name>Makarska</short_name>
   <type>locality</type>
   <type>political</type>
  </address_component>
  <address_component>
   <long_name>Općina Makarska</long_name>
   <short_name>Općina Makarska</short_name>
   <type>administrative_area_level_2</type>
   <type>political</type>
  </address_component>
  <address_component>
   <long_name>Split-Dalmatia County</long_name>
   <short_name>Split-Dalmatia County</short_name>
   <type>administrative_area_level_1</type>
   <type>political</type>
  </address_component>
  <address_component>
   <long_name>Croatia</long_name>
   <short_name>HR</short_name>
   <type>country</type>
   <type>political</type>
  </address_component>
  <address_component>
   <long_name>21300</long_name>
   <short_name>21300</short_name>
   <type>postal_code</type>
  </address_component>
  <geometry>
   <location>
    <lat>43.2937769</lat>
    <lng>17.0215239</lng>
   </location>
   <location_type>APPROXIMATE</location_type>
   <viewport>
    <southwest>
     <lat>43.2733246</lat>
     <lng>16.9855686</lng>
    </southwest>
    <northeast>
     <lat>43.3420857</lat>
     <lng>17.0825700</lng>
    </northeast>
   </viewport>
   <bounds>
    <southwest>
     <lat>43.2733246</lat>
     <lng>16.9855686</lng>
    </southwest>
    <northeast>
     <lat>43.3420857</lat>
     <lng>17.0825700</lng>
    </northeast>
   </bounds>
  </geometry>
  <place_id>ChIJI9tSiW7uShMRm6UAREtFIqk</place_id>
 </result>
</GeocodeResponse>


<GeocodeResponse>
 <status>OK</status>
 <result>
  <type>locality</type>
  <type>political</type>
  <formatted_address>21000, Split, Croatia</formatted_address>
  <address_component>
   <long_name>Split</long_name>
   <short_name>Split</short_name>
   <type>locality</type>
   <type>political</type>
  </address_component>
  <address_component>
   <long_name>Općina Split</long_name>
   <short_name>Općina Split</short_name>
   <type>administrative_area_level_2</type>
   <type>political</type>
  </address_component>
  <address_component>
   <long_name>Split-Dalmatia County</long_name>
   <short_name>Split-Dalmatia County</short_name>
   <type>administrative_area_level_1</type>
   <type>political</type>
  </address_component>
  <address_component>
   <long_name>Croatia</long_name>
   <short_name>HR</short_name>
   <type>country</type>
   <type>political</type>
  </address_component>
  <address_component>
   <long_name>21000</long_name>
   <short_name>21000</short_name>
   <type>postal_code</type>
  </address_component>
  <geometry>
   <location>
    <lat>43.5081323</lat>
    <lng>16.4401935</lng>
   </location>
   <location_type>APPROXIMATE</location_type>
   <viewport>
    <southwest>
     <lat>43.4994644</lat>
     <lng>16.3877096</lng>
    </southwest>
    <northeast>
     <lat>43.5325040</lat>
     <lng>16.5104574</lng>
    </northeast>
   </viewport>
   <bounds>
    <southwest>
     <lat>43.4994644</lat>
     <lng>16.3877096</lng>
    </southwest>
    <northeast>
     <lat>43.5325040</lat>
     <lng>16.5104574</lng>
    </northeast>
   </bounds>
  </geometry>
  <place_id>ChIJF_W8a_xdNRMRmJ-0MfaPeaE</place_id>
 </result>
</GeocodeResponse>


<GeocodeResponse>
 <status>OK</status>
 <result>
  <type>locality</type>
  <type>political</type>
  <formatted_address>Opatija, Croatia</formatted_address>
  <address_component>
   <long_name>Opatija</long_name>
   <short_name>Opatija</short_name>
   <type>locality</type>
   <type>political</type>
  </address_component>
  <address_component>
   <long_name>Općina Opatija</long_name>
   <short_name>Općina Opatija</short_name>
   <type>administrative_area_level_2</type>
   <type>political</type>
  </address_component>
  <address_component>
   <long_name>Primorje-Gorski Kotar County</long_name>
   <short_name>Primorje-Gorski Kotar County</short_name>
   <type>administrative_area_level_1</type>
   <type>political</type>
  </address_component>
  <address_component>
   <long_name>Croatia</long_name>
   <short_name>HR</short_name>
   <type>country</type>
   <type>political</type>
  </address_component>
  <geometry>
   <location>
    <lat>45.3376197</lat>
    <lng>14.3051960</lng>
   </location>
   <location_type>APPROXIMATE</location_type>
   <viewport>
    <southwest>
     <lat>45.3183874</lat>
     <lng>14.2897034</lng>
    </southwest>
    <northeast>
     <lat>45.3606751</lat>
     <lng>14.3357475</lng>
    </northeast>
   </viewport>
   <bounds>
    <southwest>
     <lat>45.3183874</lat>
     <lng>14.2897034</lng>
    </southwest>
    <northeast>
     <lat>45.3606751</lat>
     <lng>14.3357475</lng>
    </northeast>
   </bounds>
  </geometry>
  <place_id>ChIJG3S1y0qoZEcRkMIrhlCtAAQ</place_id>
 </result>
</GeocodeResponse>


<GeocodeResponse>
 <status>OK</status>
 <result>
  <type>locality</type>
  <type>political</type>
  <formatted_address>Šibenik, Croatia</formatted_address>
  <address_component>
   <long_name>Šibenik</long_name>
   <short_name>Šibenik</short_name>
   <type>locality</type>
   <type>political</type>
  </address_component>
  <address_component>
   <long_name>Općina Šibenik</long_name>
   <short_name>Općina Šibenik</short_name>
   <type>administrative_area_level_2</type>
   <type>political</type>
  </address_component>
  <address_component>
   <long_name>Šibenik-Knin County</long_name>
   <short_name>Šibenik-Knin County</short_name>
   <type>administrative_area_level_1</type>
   <type>political</type>
  </address_component>
  <address_component>
   <long_name>Croatia</long_name>
   <short_name>HR</short_name>
   <type>country</type>
   <type>political</type>
  </address_component>
  <geometry>
   <location>
    <lat>43.7350196</lat>
    <lng>15.8952045</lng>
   </location>
   <location_type>APPROXIMATE</location_type>
   <viewport>
    <southwest>
     <lat>43.6925104</lat>
     <lng>15.8300859</lng>
    </southwest>
    <northeast>
     <lat>43.7906513</lat>
     <lng>15.9448075</lng>
    </northeast>
   </viewport>
   <bounds>
    <southwest>
     <lat>43.6925104</lat>
     <lng>15.8300859</lng>
    </southwest>
    <northeast>
     <lat>43.7906513</lat>
     <lng>15.9448075</lng>
    </northeast>
   </bounds>
  </geometry>
  <place_id>ChIJndCI0BUmNRMRIMwrhlCtAAQ</place_id>
 </result>
</GeocodeResponse>


<GeocodeResponse>
 <status>OK</status>
 <result>
  <type>locality</type>
  <type>political</type>
  <formatted_address>Cavtat, Croatia</formatted_address>
  <address_component>
   <long_name>Cavtat</long_name>
   <short_name>Cavtat</short_name>
   <type>locality</type>
   <type>political</type>
  </address_component>
  <address_component>
   <long_name>Općina Konavle</long_name>
   <short_name>Općina Konavle</short_name>
   <type>administrative_area_level_2</type>
   <type>political</type>
  </address_component>
  <address_component>
   <long_name>Dubrovnik-Neretva County</long_name>
   <short_name>Dubrovnik-Neretva County</short_name>
   <type>administrative_area_level_1</type>
   <type>political</type>
  </address_component>
  <address_component>
   <long_name>Croatia</long_name>
   <short_name>HR</short_name>
   <type>country</type>
   <type>political</type>
  </address_component>
  <geometry>
   <location>
    <lat>42.5812683</lat>
    <lng>18.2175941</lng>
   </location>
   <location_type>APPROXIMATE</location_type>
   <viewport>
    <southwest>
     <lat>42.5636867</lat>
     <lng>18.1739687</lng>
    </southwest>
    <northeast>
     <lat>42.6007265</lat>
     <lng>18.2512879</lng>
    </northeast>
   </viewport>
   <bounds>
    <southwest>
     <lat>42.5636867</lat>
     <lng>18.1739687</lng>
    </southwest>
    <northeast>
     <lat>42.6007265</lat>
     <lng>18.2512879</lng>
    </northeast>
   </bounds>
  </geometry>
  <place_id>ChIJddVIKpkNTBMRIvA1U1GtACY</place_id>
 </result>
</GeocodeResponse>


<GeocodeResponse>
 <status>OK</status>
 <result>
  <type>locality</type>
  <type>political</type>
  <formatted_address>53230, Korenica, Croatia</formatted_address>
  <address_component>
   <long_name>Korenica</long_name>
   <short_name>Korenica</short_name>
   <type>locality</type>
   <type>political</type>
  </address_component>
  <address_component>
   <long_name>Općina Plitvička Jezera</long_name>
   <short_name>Općina Plitvička Jezera</short_name>
   <type>administrative_area_level_2</type>
   <type>political</type>
  </address_component>
  <address_component>
   <long_name>Lika-Senj County</long_name>
   <short_name>Lika-Senj County</short_name>
   <type>administrative_area_level_1</type>
   <type>political</type>
  </address_component>
  <address_component>
   <long_name>Croatia</long_name>
   <short_name>HR</short_name>
   <type>country</type>
   <type>political</type>
  </address_component>
  <address_component>
   <long_name>53230</long_name>
   <short_name>53230</short_name>
   <type>postal_code</type>
  </address_component>
  <geometry>
   <location>
    <lat>44.7439650</lat>
    <lng>15.7066014</lng>
   </location>
   <location_type>APPROXIMATE</location_type>
   <viewport>
    <southwest>
     <lat>44.7352872</lat>
     <lng>15.7007581</lng>
    </southwest>
    <northeast>
     <lat>44.7546203</lat>
     <lng>15.7260726</lng>
    </northeast>
   </viewport>
   <bounds>
    <southwest>
     <lat>44.7352872</lat>
     <lng>15.7007581</lng>
    </southwest>
    <northeast>
     <lat>44.7546203</lat>
     <lng>15.7260726</lng>
    </northeast>
   </bounds>
  </geometry>
  <place_id>ChIJ_2pkMS5pYUcRQJmu0FKtAAo</place_id>
 </result>
</GeocodeResponse>


<GeocodeResponse>
 <status>OK</status>
 <result>
  <type>locality</type>
  <type>political</type>
  <formatted_address>Rijeka, Croatia</formatted_address>
  <address_component>
   <long_name>Rijeka</long_name>
   <short_name>Rijeka</short_name>
   <type>locality</type>
   <type>political</type>
  </address_component>
  <address_component>
   <long_name>Općina Rijeka</long_name>
   <short_name>Općina Rijeka</short_name>
   <type>administrative_area_level_2</type>
   <type>political</type>
  </address_component>
  <address_component>
   <long_name>Primorje-Gorski Kotar County</long_name>
   <short_name>Primorje-Gorski Kotar County</short_name>
   <type>administrative_area_level_1</type>
   <type>political</type>
  </address_component>
  <address_component>
   <long_name>Croatia</long_name>
   <short_name>HR</short_name>
   <type>country</type>
   <type>political</type>
  </address_component>
  <geometry>
   <location>
    <lat>45.3270631</lat>
    <lng>14.4421760</lng>
   </location>
   <location_type>APPROXIMATE</location_type>
   <viewport>
    <southwest>
     <lat>45.3110602</lat>
     <lng>14.3319921</lng>
    </southwest>
    <northeast>
     <lat>45.3841597</lat>
     <lng>14.5216359</lng>
    </northeast>
   </viewport>
   <bounds>
    <southwest>
     <lat>45.3110602</lat>
     <lng>14.3319921</lng>
    </southwest>
    <northeast>
     <lat>45.3841597</lat>
     <lng>14.5216359</lng>
    </northeast>
   </bounds>
  </geometry>
  <place_id>ChIJLb6qFyWhZEcRcLbLPThvPDc</place_id>
 </result>
</GeocodeResponse>


<GeocodeResponse>
 <status>OK</status>
 <result>
  <type>locality</type>
  <type>political</type>
  <formatted_address>Dubrovnik, Croatia</formatted_address>
  <address_component>
   <long_name>Dubrovnik</long_name>
   <short_name>Dubrovnik</short_name>
   <type>locality</type>
   <type>political</type>
  </address_component>
  <address_component>
   <long_name>Općina Dubrovnik</long_name>
   <short_name>Općina Dubrovnik</short_name>
   <type>administrative_area_level_2</type>
   <type>political</type>
  </address_component>
  <address_component>
   <long_name>Dubrovnik-Neretva County</long_name>
   <short_name>Dubrovnik-Neretva County</short_name>
   <type>administrative_area_level_1</type>
   <type>political</type>
  </address_component>
  <address_component>
   <long_name>Croatia</long_name>
   <short_name>HR</short_name>
   <type>country</type>
   <type>political</type>
  </address_component>
  <geometry>
   <location>
    <lat>42.6506606</lat>
    <lng>18.0944238</lng>
   </location>
   <location_type>APPROXIMATE</location_type>
   <viewport>
    <southwest>
     <lat>42.6209352</lat>
     <lng>18.0462680</lng>
    </southwest>
    <northeast>
     <lat>42.6705792</lat>
     <lng>18.1418265</lng>
    </northeast>
   </viewport>
   <bounds>
    <southwest>
     <lat>42.6209352</lat>
     <lng>18.0462680</lng>
    </southwest>
    <northeast>
     <lat>42.6705792</lat>
     <lng>18.1418265</lng>
    </northeast>
   </bounds>
  </geometry>
  <place_id>ChIJfeg1CKKLSxMRANUrhlCtAAQ</place_id>
 </result>
</GeocodeResponse>


<GeocodeResponse>
 <status>OK</status>
 <result>
  <type>locality</type>
  <type>political</type>
  <formatted_address>Rovinj, Croatia</formatted_address>
  <address_component>
   <long_name>Rovinj</long_name>
   <short_name>Rovinj</short_name>
   <type>locality</type>
   <type>political</type>
  </address_component>
  <address_component>
   <long_name>Općina Rovinj</long_name>
   <short_name>Općina Rovinj</short_name>
   <type>administrative_area_level_2</type>
   <type>political</type>
  </address_component>
  <address_component>
   <long_name>Istria County</long_name>
   <short_name>Istria County</short_name>
   <type>administrative_area_level_1</type>
   <type>political</type>
  </address_component>
  <address_component>
   <long_name>Croatia</long_name>
   <short_name>HR</short_name>
   <type>country</type>
   <type>political</type>
  </address_component>
  <geometry>
   <location>
    <lat>45.0811661</lat>
    <lng>13.6387067</lng>
   </location>
   <location_type>APPROXIMATE</location_type>
   <viewport>
    <southwest>
     <lat>45.0159454</lat>
     <lng>13.6067146</lng>
    </southwest>
    <northeast>
     <lat>45.1315670</lat>
     <lng>13.7346794</lng>
    </northeast>
   </viewport>
   <bounds>
    <southwest>
     <lat>45.0159454</lat>
     <lng>13.6067146</lng>
    </southwest>
    <northeast>
     <lat>45.1315670</lat>
     <lng>13.7346794</lng>
    </northeast>
   </bounds>
  </geometry>
  <place_id>ChIJ_4ZcTWO_fEcRU66YxWGfxv8</place_id>
 </result>
</GeocodeResponse>


<GeocodeResponse>
 <status>OK</status>
 <result>
  <type>locality</type>
  <type>political</type>
  <formatted_address>Podstrana, Croatia</formatted_address>
  <address_component>
   <long_name>Podstrana</long_name>
   <short_name>Podstrana</short_name>
   <type>locality</type>
   <type>political</type>
  </address_component>
  <address_component>
   <long_name>Općina Podstrana</long_name>
   <short_name>Općina Podstrana</short_name>
   <type>administrative_area_level_2</type>
   <type>political</type>
  </address_component>
  <address_component>
   <long_name>Splitsko-dalmatinska županija</long_name>
   <short_name>Splitsko-dalmatinska županija</short_name>
   <type>administrative_area_level_1</type>
   <type>political</type>
  </address_component>
  <address_component>
   <long_name>Croatia</long_name>
   <short_name>HR</short_name>
   <type>country</type>
   <type>political</type>
  </address_component>
  <geometry>
   <location>
    <lat>43.4858487</lat>
    <lng>16.5493816</lng>
   </location>
   <location_type>APPROXIMATE</location_type>
   <viewport>
    <southwest>
     <lat>43.4655722</lat>
     <lng>16.5311167</lng>
    </southwest>
    <northeast>
     <lat>43.5187699</lat>
     <lng>16.5906806</lng>
    </northeast>
   </viewport>
   <bounds>
    <southwest>
     <lat>43.4655722</lat>
     <lng>16.5311167</lng>
    </southwest>
    <northeast>
     <lat>43.5187699</lat>
     <lng>16.5906806</lng>
    </northeast>
   </bounds>
  </geometry>
  <place_id>ChIJmVj51n-fShMRnxsFmABqKr8</place_id>
 </result>
</GeocodeResponse>


<GeocodeResponse>
 <status>OK</status>
 <result>
  <type>locality</type>
  <type>political</type>
  <formatted_address>Pula, Croatia</formatted_address>
  <address_component>
   <long_name>Pula</long_name>
   <short_name>Pula</short_name>
   <type>locality</type>
   <type>political</type>
  </address_component>
  <address_component>
   <long_name>Općina Pula</long_name>
   <short_name>Općina Pula</short_name>
   <type>administrative_area_level_2</type>
   <type>political</type>
  </address_component>
  <address_component>
   <long_name>Istria County</long_name>
   <short_name>Istria County</short_name>
   <type>administrative_area_level_1</type>
   <type>political</type>
  </address_component>
  <address_component>
   <long_name>Croatia</long_name>
   <short_name>HR</short_name>
   <type>country</type>
   <type>political</type>
  </address_component>
  <geometry>
   <location>
    <lat>44.8666232</lat>
    <lng>13.8495788</lng>
   </location>
   <location_type>APPROXIMATE</location_type>
   <viewport>
    <southwest>
     <lat>44.8263188</lat>
     <lng>13.7154437</lng>
    </southwest>
    <northeast>
     <lat>44.9443883</lat>
     <lng>13.9168286</lng>
    </northeast>
   </viewport>
   <bounds>
    <southwest>
     <lat>44.8263188</lat>
     <lng>13.7154437</lng>
    </southwest>
    <northeast>
     <lat>44.9443883</lat>
     <lng>13.9168286</lng>
    </northeast>
   </bounds>
  </geometry>
  <place_id>ChIJbXszCd7SfEcRDVhOezpKMnI</place_id>
 </result>
</GeocodeResponse>


<GeocodeResponse>
 <status>OK</status>
 <result>
  <type>locality</type>
  <type>political</type>
  <formatted_address>Poreč, Croatia</formatted_address>
  <address_component>
   <long_name>Poreč</long_name>
   <short_name>Poreč</short_name>
   <type>locality</type>
   <type>political</type>
  </address_component>
  <address_component>
   <long_name>Općina Poreč</long_name>
   <short_name>Općina Poreč</short_name>
   <type>administrative_area_level_2</type>
   <type>political</type>
  </address_component>
  <address_component>
   <long_name>Istria County</long_name>
   <short_name>Istria County</short_name>
   <type>administrative_area_level_1</type>
   <type>political</type>
  </address_component>
  <address_component>
   <long_name>Croatia</long_name>
   <short_name>HR</short_name>
   <type>country</type>
   <type>political</type>
  </address_component>
  <geometry>
   <location>
    <lat>45.2271652</lat>
    <lng>13.5947399</lng>
   </location>
   <location_type>APPROXIMATE</location_type>
   <viewport>
    <southwest>
     <lat>45.1944592</lat>
     <lng>13.5681732</lng>
    </southwest>
    <northeast>
     <lat>45.2679517</lat>
     <lng>13.6276565</lng>
    </northeast>
   </viewport>
   <bounds>
    <southwest>
     <lat>45.1944592</lat>
     <lng>13.5681732</lng>
    </southwest>
    <northeast>
     <lat>45.2679517</lat>
     <lng>13.6276565</lng>
    </northeast>
   </bounds>
  </geometry>
  <place_id>ChIJKZCHlJyXfEcRvar-h7XlqQc</place_id>
 </result>
</GeocodeResponse>


<GeocodeResponse>
 <status>OK</status>
 <result>
  <type>locality</type>
  <type>political</type>
  <formatted_address>51513, Omišalj, Croatia</formatted_address>
  <address_component>
   <long_name>Omišalj</long_name>
   <short_name>Omišalj</short_name>
   <type>locality</type>
   <type>political</type>
  </address_component>
  <address_component>
   <long_name>Općina Omišalj</long_name>
   <short_name>Općina Omišalj</short_name>
   <type>administrative_area_level_2</type>
   <type>political</type>
  </address_component>
  <address_component>
   <long_name>Primorsko-goranska županija</long_name>
   <short_name>Primorsko-goranska županija</short_name>
   <type>administrative_area_level_1</type>
   <type>political</type>
  </address_component>
  <address_component>
   <long_name>Croatia</long_name>
   <short_name>HR</short_name>
   <type>country</type>
   <type>political</type>
  </address_component>
  <address_component>
   <long_name>51513</long_name>
   <short_name>51513</short_name>
   <type>postal_code</type>
  </address_component>
  <geometry>
   <location>
    <lat>45.2110039</lat>
    <lng>14.5569253</lng>
   </location>
   <location_type>APPROXIMATE</location_type>
   <viewport>
    <southwest>
     <lat>45.1765731</lat>
     <lng>14.5273976</lng>
    </southwest>
    <northeast>
     <lat>45.2566779</lat>
     <lng>14.6163286</lng>
    </northeast>
   </viewport>
   <bounds>
    <southwest>
     <lat>45.1765731</lat>
     <lng>14.5273976</lng>
    </southwest>
    <northeast>
     <lat>45.2566779</lat>
     <lng>14.6163286</lng>
    </northeast>
   </bounds>
  </geometry>
  <place_id>ChIJkTh_XlthY0cRXK_rN0jQpgE</place_id>
 </result>
</GeocodeResponse>


<GeocodeResponse>
 <status>OK</status>
 <result>
  <type>locality</type>
  <type>political</type>
  <formatted_address>Paphos, Cyprus</formatted_address>
  <address_component>
   <long_name>Paphos</long_name>
   <short_name>Paphos</short_name>
   <type>locality</type>
   <type>political</type>
  </address_component>
  <address_component>
   <long_name>Paphos</long_name>
   <short_name>Paphos</short_name>
   <type>administrative_area_level_1</type>
   <type>political</type>
  </address_component>
  <address_component>
   <long_name>Cyprus</long_name>
   <short_name>CY</short_name>
   <type>country</type>
   <type>political</type>
  </address_component>
  <geometry>
   <location>
    <lat>34.7720133</lat>
    <lng>32.4297369</lng>
   </location>
   <location_type>APPROXIMATE</location_type>
   <viewport>
    <southwest>
     <lat>34.7441863</lat>
     <lng>32.3994188</lng>
    </southwest>
    <northeast>
     <lat>34.8011783</lat>
     <lng>32.4666024</lng>
    </northeast>
   </viewport>
   <bounds>
    <southwest>
     <lat>34.7441863</lat>
     <lng>32.3994188</lng>
    </southwest>
    <northeast>
     <lat>34.8011783</lat>
     <lng>32.4666024</lng>
    </northeast>
   </bounds>
  </geometry>
  <place_id>ChIJyeIt9GMG5xQR57X0UP_9BWw</place_id>
 </result>
</GeocodeResponse>


<GeocodeResponse>
 <status>OK</status>
 <result>
  <type>locality</type>
  <type>political</type>
  <formatted_address>Limassol, Cyprus</formatted_address>
  <address_component>
   <long_name>Limassol</long_name>
   <short_name>Limassol</short_name>
   <type>locality</type>
   <type>political</type>
  </address_component>
  <address_component>
   <long_name>Limassol</long_name>
   <short_name>Limassol</short_name>
   <type>administrative_area_level_1</type>
   <type>political</type>
  </address_component>
  <address_component>
   <long_name>Cyprus</long_name>
   <short_name>CY</short_name>
   <type>country</type>
   <type>political</type>
  </address_component>
  <geometry>
   <location>
    <lat>34.7071301</lat>
    <lng>33.0226174</lng>
   </location>
   <location_type>APPROXIMATE</location_type>
   <viewport>
    <southwest>
     <lat>34.6433680</lat>
     <lng>32.9856777</lng>
    </southwest>
    <northeast>
     <lat>34.7401137</lat>
     <lng>33.0705419</lng>
    </northeast>
   </viewport>
   <bounds>
    <southwest>
     <lat>34.6433680</lat>
     <lng>32.9856777</lng>
    </southwest>
    <northeast>
     <lat>34.7401137</lat>
     <lng>33.0705419</lng>
    </northeast>
   </bounds>
  </geometry>
  <place_id>ChIJnfQCrBYz5xQRErAlcJV_qdo</place_id>
 </result>
</GeocodeResponse>


<GeocodeResponse>
 <status>ZERO_RESULTS</status>
</GeocodeResponse>


<GeocodeResponse>
 <status>OK</status>
 <result>
  <type>locality</type>
  <type>political</type>
  <formatted_address>Larnaca, Cyprus</formatted_address>
  <address_component>
   <long_name>Larnaca</long_name>
   <short_name>Larnaca</short_name>
   <type>locality</type>
   <type>political</type>
  </address_component>
  <address_component>
   <long_name>Larnaca</long_name>
   <short_name>Larnaca</short_name>
   <type>administrative_area_level_1</type>
   <type>political</type>
  </address_component>
  <address_component>
   <long_name>Cyprus</long_name>
   <short_name>CY</short_name>
   <type>country</type>
   <type>political</type>
  </address_component>
  <geometry>
   <location>
    <lat>34.9002535</lat>
    <lng>33.6231723</lng>
   </location>
   <location_type>APPROXIMATE</location_type>
   <viewport>
    <southwest>
     <lat>34.8454990</lat>
     <lng>33.5857308</lng>
    </southwest>
    <northeast>
     <lat>34.9572480</lat>
     <lng>33.6547388</lng>
    </northeast>
   </viewport>
   <bounds>
    <southwest>
     <lat>34.8454990</lat>
     <lng>33.5857308</lng>
    </southwest>
    <northeast>
     <lat>34.9572480</lat>
     <lng>33.6547388</lng>
    </northeast>
   </bounds>
  </geometry>
  <place_id>ChIJE8tAbKGC4BQRpdBxEyLwy08</place_id>
 </result>
</GeocodeResponse>


<GeocodeResponse>
 <status>OK</status>
 <result>
  <type>locality</type>
  <type>political</type>
  <formatted_address>Protaras, Cyprus</formatted_address>
  <address_component>
   <long_name>Protaras</long_name>
   <short_name>Protaras</short_name>
   <type>locality</type>
   <type>political</type>
  </address_component>
  <address_component>
   <long_name>Famagusta</long_name>
   <short_name>Famagusta</short_name>
   <type>administrative_area_level_1</type>
   <type>political</type>
  </address_component>
  <address_component>
   <long_name>Cyprus</long_name>
   <short_name>CY</short_name>
   <type>country</type>
   <type>political</type>
  </address_component>
  <geometry>
   <location>
    <lat>35.0011797</lat>
    <lng>34.0474348</lng>
   </location>
   <location_type>APPROXIMATE</location_type>
   <viewport>
    <southwest>
     <lat>34.9839065</lat>
     <lng>34.0063763</lng>
    </southwest>
    <northeast>
     <lat>35.0241276</lat>
     <lng>34.0785599</lng>
    </northeast>
   </viewport>
   <bounds>
    <southwest>
     <lat>34.9839065</lat>
     <lng>34.0063763</lng>
    </southwest>
    <northeast>
     <lat>35.0241276</lat>
     <lng>34.0785599</lng>
    </northeast>
   </bounds>
  </geometry>
  <place_id>ChIJ9-I3Y2nE3xQRrA-RsEagJRM</place_id>
 </result>
</GeocodeResponse>


<GeocodeResponse>
 <status>OK</status>
 <result>
  <type>locality</type>
  <type>political</type>
  <formatted_address>Nicosia, Cyprus</formatted_address>
  <address_component>
   <long_name>Nicosia</long_name>
   <short_name>Nicosia</short_name>
   <type>locality</type>
   <type>political</type>
  </address_component>
  <address_component>
   <long_name>Nicosia</long_name>
   <short_name>Nicosia</short_name>
   <type>administrative_area_level_1</type>
   <type>political</type>
  </address_component>
  <address_component>
   <long_name>Cyprus</long_name>
   <short_name>CY</short_name>
   <type>country</type>
   <type>political</type>
  </address_component>
  <geometry>
   <location>
    <lat>35.1855659</lat>
    <lng>33.3822764</lng>
   </location>
   <location_type>APPROXIMATE</location_type>
   <viewport>
    <southwest>
     <lat>35.1521879</lat>
     <lng>33.3185077</lng>
    </southwest>
    <northeast>
     <lat>35.2323172</lat>
     <lng>33.4762967</lng>
    </northeast>
   </viewport>
   <bounds>
    <southwest>
     <lat>35.1521879</lat>
     <lng>33.3185077</lng>
    </southwest>
    <northeast>
     <lat>35.2323172</lat>
     <lng>33.4762967</lng>
    </northeast>
   </bounds>
  </geometry>
  <place_id>ChIJVU1JymcX3hQRpcARA5ykXls</place_id>
 </result>
</GeocodeResponse>


<GeocodeResponse>
 <status>OK</status>
 <result>
  <type>locality</type>
  <type>political</type>
  <formatted_address>Kissonerga, Cyprus</formatted_address>
  <address_component>
   <long_name>Kissonerga</long_name>
   <short_name>Kissonerga</short_name>
   <type>locality</type>
   <type>political</type>
  </address_component>
  <address_component>
   <long_name>Paphos</long_name>
   <short_name>Paphos</short_name>
   <type>administrative_area_level_1</type>
   <type>political</type>
  </address_component>
  <address_component>
   <long_name>Cyprus</long_name>
   <short_name>CY</short_name>
   <type>country</type>
   <type>political</type>
  </address_component>
  <geometry>
   <location>
    <lat>34.8281946</lat>
    <lng>32.4070834</lng>
   </location>
   <location_type>APPROXIMATE</location_type>
   <viewport>
    <southwest>
     <lat>34.8129896</lat>
     <lng>32.3814941</lng>
    </southwest>
    <northeast>
     <lat>34.8570945</lat>
     <lng>32.4176023</lng>
    </northeast>
   </viewport>
   <bounds>
    <southwest>
     <lat>34.8129896</lat>
     <lng>32.3814941</lng>
    </southwest>
    <northeast>
     <lat>34.8570945</lat>
     <lng>32.4176023</lng>
    </northeast>
   </bounds>
  </geometry>
  <place_id>ChIJSxBYldIH5xQRpoZgyX847k4</place_id>
 </result>
</GeocodeResponse>


<GeocodeResponse>
 <status>OK</status>
 <result>
  <type>locality</type>
  <type>political</type>
  <formatted_address>Paralimni, Cyprus</formatted_address>
  <address_component>
   <long_name>Paralimni</long_name>
   <short_name>Paralimni</short_name>
   <type>locality</type>
   <type>political</type>
  </address_component>
  <address_component>
   <long_name>Famagusta</long_name>
   <short_name>Famagusta</short_name>
   <type>administrative_area_level_1</type>
   <type>political</type>
  </address_component>
  <address_component>
   <long_name>Cyprus</long_name>
   <short_name>CY</short_name>
   <type>country</type>
   <type>political</type>
  </address_component>
  <geometry>
   <location>
    <lat>35.0352421</lat>
    <lng>33.9861490</lng>
   </location>
   <location_type>APPROXIMATE</location_type>
   <viewport>
    <southwest>
     <lat>35.0037943</lat>
     <lng>33.9529896</lng>
    </southwest>
    <northeast>
     <lat>35.0679050</lat>
     <lng>34.0402348</lng>
    </northeast>
   </viewport>
   <bounds>
    <southwest>
     <lat>35.0037943</lat>
     <lng>33.9529896</lng>
    </southwest>
    <northeast>
     <lat>35.0679050</lat>
     <lng>34.0402348</lng>
    </northeast>
   </bounds>
  </geometry>
  <place_id>ChIJN6Wo-2vE3xQR3F9Dv19dyqc</place_id>
 </result>
</GeocodeResponse>


<GeocodeResponse>
 <status>OK</status>
 <result>
  <type>locality</type>
  <type>political</type>
  <formatted_address>Brno, Czechia</formatted_address>
  <address_component>
   <long_name>Brno</long_name>
   <short_name>Brno</short_name>
   <type>locality</type>
   <type>political</type>
  </address_component>
  <address_component>
   <long_name>Brno-City District</long_name>
   <short_name>Brno-City District</short_name>
   <type>administrative_area_level_2</type>
   <type>political</type>
  </address_component>
  <address_component>
   <long_name>South Moravian Region</long_name>
   <short_name>South Moravian Region</short_name>
   <type>administrative_area_level_1</type>
   <type>political</type>
  </address_component>
  <address_component>
   <long_name>Czechia</long_name>
   <short_name>CZ</short_name>
   <type>country</type>
   <type>political</type>
  </address_component>
  <geometry>
   <location>
    <lat>49.1950602</lat>
    <lng>16.6068371</lng>
   </location>
   <location_type>APPROXIMATE</location_type>
   <viewport>
    <southwest>
     <lat>49.1096552</lat>
     <lng>16.4280678</lng>
    </southwest>
    <northeast>
     <lat>49.2944850</lat>
     <lng>16.7278532</lng>
    </northeast>
   </viewport>
   <bounds>
    <southwest>
     <lat>49.1096552</lat>
     <lng>16.4280678</lng>
    </southwest>
    <northeast>
     <lat>49.2944850</lat>
     <lng>16.7278532</lng>
    </northeast>
   </bounds>
  </geometry>
  <place_id>ChIJEVE_wDqUEkcRsLEUZg-vAAQ</place_id>
 </result>
</GeocodeResponse>


<GeocodeResponse>
 <status>OK</status>
 <result>
  <type>locality</type>
  <type>political</type>
  <formatted_address>Prague, Czechia</formatted_address>
  <address_component>
   <long_name>Prague</long_name>
   <short_name>Prague</short_name>
   <type>locality</type>
   <type>political</type>
  </address_component>
  <address_component>
   <long_name>Hlavní město Praha</long_name>
   <short_name>Hlavní město Praha</short_name>
   <type>administrative_area_level_2</type>
   <type>political</type>
  </address_component>
  <address_component>
   <long_name>Prague</long_name>
   <short_name>Prague</short_name>
   <type>administrative_area_level_1</type>
   <type>political</type>
  </address_component>
  <address_component>
   <long_name>Czechia</long_name>
   <short_name>CZ</short_name>
   <type>country</type>
   <type>political</type>
  </address_component>
  <geometry>
   <location>
    <lat>50.0755381</lat>
    <lng>14.4378005</lng>
   </location>
   <location_type>APPROXIMATE</location_type>
   <viewport>
    <southwest>
     <lat>49.9419363</lat>
     <lng>14.2244533</lng>
    </southwest>
    <northeast>
     <lat>50.1774030</lat>
     <lng>14.7067945</lng>
    </northeast>
   </viewport>
   <bounds>
    <southwest>
     <lat>49.9419363</lat>
     <lng>14.2244533</lng>
    </southwest>
    <northeast>
     <lat>50.1774030</lat>
     <lng>14.7067945</lng>
    </northeast>
   </bounds>
  </geometry>
  <place_id>ChIJi3lwCZyTC0cRkEAWZg-vAAQ</place_id>
 </result>
</GeocodeResponse>


<GeocodeResponse>
 <status>OK</status>
 <result>
  <type>locality</type>
  <type>political</type>
  <formatted_address>Aarhus, Denmark</formatted_address>
  <address_component>
   <long_name>Aarhus</long_name>
   <short_name>Aarhus</short_name>
   <type>locality</type>
   <type>political</type>
  </address_component>
  <address_component>
   <long_name>Denmark</long_name>
   <short_name>DK</short_name>
   <type>country</type>
   <type>political</type>
  </address_component>
  <geometry>
   <location>
    <lat>56.1629390</lat>
    <lng>10.2039210</lng>
   </location>
   <location_type>APPROXIMATE</location_type>
   <viewport>
    <southwest>
     <lat>56.1185725</lat>
     <lng>10.1085108</lng>
    </southwest>
    <northeast>
     <lat>56.2376354</lat>
     <lng>10.2554381</lng>
    </northeast>
   </viewport>
   <bounds>
    <southwest>
     <lat>56.1185725</lat>
     <lng>10.1085108</lng>
    </southwest>
    <northeast>
     <lat>56.2376354</lat>
     <lng>10.2554381</lng>
    </northeast>
   </bounds>
  </geometry>
  <place_id>ChIJi3iXU7FMTEYRr6IukdnXTYw</place_id>
 </result>
</GeocodeResponse>


<GeocodeResponse>
 <status>OK</status>
 <result>
  <type>locality</type>
  <type>political</type>
  <formatted_address>7190 Billund, Denmark</formatted_address>
  <address_component>
   <long_name>Billund</long_name>
   <short_name>Billund</short_name>
   <type>locality</type>
   <type>political</type>
  </address_component>
  <address_component>
   <long_name>Denmark</long_name>
   <short_name>DK</short_name>
   <type>country</type>
   <type>political</type>
  </address_component>
  <address_component>
   <long_name>7190</long_name>
   <short_name>7190</short_name>
   <type>postal_code</type>
  </address_component>
  <geometry>
   <location>
    <lat>55.7284490</lat>
    <lng>9.1123660</lng>
   </location>
   <location_type>APPROXIMATE</location_type>
   <viewport>
    <southwest>
     <lat>55.6724106</lat>
     <lng>8.9810461</lng>
    </southwest>
    <northeast>
     <lat>55.7893695</lat>
     <lng>9.1801721</lng>
    </northeast>
   </viewport>
   <bounds>
    <southwest>
     <lat>55.6724106</lat>
     <lng>8.9810461</lng>
    </southwest>
    <northeast>
     <lat>55.7893695</lat>
     <lng>9.1801721</lng>
    </northeast>
   </bounds>
  </geometry>
  <place_id>ChIJs0HiryNyS0YRMug7gHVzvok</place_id>
 </result>
</GeocodeResponse>


<GeocodeResponse>
 <status>OK</status>
 <result>
  <type>locality</type>
  <type>political</type>
  <formatted_address>Copenhagen, Denmark</formatted_address>
  <address_component>
   <long_name>Copenhagen</long_name>
   <short_name>Copenhagen</short_name>
   <type>locality</type>
   <type>political</type>
  </address_component>
  <address_component>
   <long_name>Denmark</long_name>
   <short_name>DK</short_name>
   <type>country</type>
   <type>political</type>
  </address_component>
  <geometry>
   <location>
    <lat>55.6760968</lat>
    <lng>12.5683372</lng>
   </location>
   <location_type>APPROXIMATE</location_type>
   <viewport>
    <southwest>
     <lat>55.6154410</lat>
     <lng>12.4533824</lng>
    </southwest>
    <northeast>
     <lat>55.7270937</lat>
     <lng>12.7342654</lng>
    </northeast>
   </viewport>
   <bounds>
    <southwest>
     <lat>55.6154410</lat>
     <lng>12.4533824</lng>
    </southwest>
    <northeast>
     <lat>55.7270937</lat>
     <lng>12.7342654</lng>
    </northeast>
   </bounds>
  </geometry>
  <place_id>ChIJIz2AXDxTUkYRuGeU5t1-3QQ</place_id>
 </result>
</GeocodeResponse>


<GeocodeResponse>
 <status>OK</status>
 <result>
  <type>locality</type>
  <type>political</type>
  <formatted_address>3700 Ronne, Denmark</formatted_address>
  <address_component>
   <long_name>Ronne</long_name>
   <short_name>Ronne</short_name>
   <type>locality</type>
   <type>political</type>
  </address_component>
  <address_component>
   <long_name>Denmark</long_name>
   <short_name>DK</short_name>
   <type>country</type>
   <type>political</type>
  </address_component>
  <address_component>
   <long_name>3700</long_name>
   <short_name>3700</short_name>
   <type>postal_code</type>
  </address_component>
  <geometry>
   <location>
    <lat>55.1010170</lat>
    <lng>14.7083290</lng>
   </location>
   <location_type>APPROXIMATE</location_type>
   <viewport>
    <southwest>
     <lat>55.0523927</lat>
     <lng>14.6830952</lng>
    </southwest>
    <northeast>
     <lat>55.1793037</lat>
     <lng>14.9241397</lng>
    </northeast>
   </viewport>
   <bounds>
    <southwest>
     <lat>55.0523927</lat>
     <lng>14.6830952</lng>
    </southwest>
    <northeast>
     <lat>55.1793037</lat>
     <lng>14.9241397</lng>
    </northeast>
   </bounds>
  </geometry>
  <place_id>ChIJQxk0kuMaVUYRWDUHuaW4lJc</place_id>
 </result>
</GeocodeResponse>


<GeocodeResponse>
 <status>OK</status>
 <result>
  <type>locality</type>
  <type>political</type>
  <formatted_address>Kastrup, Denmark</formatted_address>
  <address_component>
   <long_name>Kastrup</long_name>
   <short_name>Kastrup</short_name>
   <type>locality</type>
   <type>political</type>
  </address_component>
  <address_component>
   <long_name>Denmark</long_name>
   <short_name>DK</short_name>
   <type>country</type>
   <type>political</type>
  </address_component>
  <geometry>
   <location>
    <lat>55.6107703</lat>
    <lng>12.6051632</lng>
   </location>
   <location_type>APPROXIMATE</location_type>
   <viewport>
    <southwest>
     <lat>55.5916483</lat>
     <lng>12.5136089</lng>
    </southwest>
    <northeast>
     <lat>55.6725955</lat>
     <lng>12.7895948</lng>
    </northeast>
   </viewport>
   <bounds>
    <southwest>
     <lat>55.5916483</lat>
     <lng>12.5136089</lng>
    </southwest>
    <northeast>
     <lat>55.6725955</lat>
     <lng>12.7895948</lng>
    </northeast>
   </bounds>
  </geometry>
  <place_id>ChIJ44SImGGrU0YRlnhZF37rm30</place_id>
 </result>
</GeocodeResponse>


<GeocodeResponse>
 <status>OK</status>
 <result>
  <type>locality</type>
  <type>political</type>
  <formatted_address>Tallinn, Estonia</formatted_address>
  <address_component>
   <long_name>Tallinn</long_name>
   <short_name>Tallinn</short_name>
   <type>locality</type>
   <type>political</type>
  </address_component>
  <address_component>
   <long_name>Harju County</long_name>
   <short_name>Harju County</short_name>
   <type>administrative_area_level_1</type>
   <type>political</type>
  </address_component>
  <address_component>
   <long_name>Estonia</long_name>
   <short_name>EE</short_name>
   <type>country</type>
   <type>political</type>
  </address_component>
  <geometry>
   <location>
    <lat>59.4369608</lat>
    <lng>24.7535747</lng>
   </location>
   <location_type>APPROXIMATE</location_type>
   <viewport>
    <southwest>
     <lat>59.3518090</lat>
     <lng>24.5501939</lng>
    </southwest>
    <northeast>
     <lat>59.5915770</lat>
     <lng>24.9262890</lng>
    </northeast>
   </viewport>
   <bounds>
    <southwest>
     <lat>59.3518090</lat>
     <lng>24.5501939</lng>
    </southwest>
    <northeast>
     <lat>59.5915770</lat>
     <lng>24.9262890</lng>
    </northeast>
   </bounds>
  </geometry>
  <place_id>ChIJvxZW35mUkkYRcGL8GG2zAAQ</place_id>
 </result>
</GeocodeResponse>


<GeocodeResponse>
 <status>OK</status>
 <result>
  <type>locality</type>
  <type>political</type>
  <formatted_address>Pärnu, Pärnu County, Estonia</formatted_address>
  <address_component>
   <long_name>Pärnu</long_name>
   <short_name>Pärnu</short_name>
   <type>locality</type>
   <type>political</type>
  </address_component>
  <address_component>
   <long_name>Pärnu County</long_name>
   <short_name>Pärnu County</short_name>
   <type>administrative_area_level_1</type>
   <type>political</type>
  </address_component>
  <address_component>
   <long_name>Estonia</long_name>
   <short_name>EE</short_name>
   <type>country</type>
   <type>political</type>
  </address_component>
  <geometry>
   <location>
    <lat>58.3916898</lat>
    <lng>24.4952894</lng>
   </location>
   <location_type>APPROXIMATE</location_type>
   <viewport>
    <southwest>
     <lat>58.3416121</lat>
     <lng>24.4512727</lng>
    </southwest>
    <northeast>
     <lat>58.4163918</lat>
     <lng>24.6044395</lng>
    </northeast>
   </viewport>
   <bounds>
    <southwest>
     <lat>58.3416121</lat>
     <lng>24.4512727</lng>
    </southwest>
    <northeast>
     <lat>58.4163918</lat>
     <lng>24.6044395</lng>
    </northeast>
   </bounds>
  </geometry>
  <place_id>ChIJoSQnAt787EYRkGn8GG2zAAQ</place_id>
 </result>
</GeocodeResponse>


<GeocodeResponse>
 <status>OK</status>
 <result>
  <type>locality</type>
  <type>political</type>
  <formatted_address>Tartu, Estonia</formatted_address>
  <address_component>
   <long_name>Tartu</long_name>
   <short_name>Tartu</short_name>
   <type>locality</type>
   <type>political</type>
  </address_component>
  <address_component>
   <long_name>Tartu County</long_name>
   <short_name>Tartu County</short_name>
   <type>administrative_area_level_1</type>
   <type>political</type>
  </address_component>
  <address_component>
   <long_name>Estonia</long_name>
   <short_name>EE</short_name>
   <type>country</type>
   <type>political</type>
  </address_component>
  <geometry>
   <location>
    <lat>58.3779830</lat>
    <lng>26.7290383</lng>
   </location>
   <location_type>APPROXIMATE</location_type>
   <viewport>
    <southwest>
     <lat>58.3390198</lat>
     <lng>26.6670753</lng>
    </southwest>
    <northeast>
     <lat>58.4108843</lat>
     <lng>26.7980148</lng>
    </northeast>
   </viewport>
   <bounds>
    <southwest>
     <lat>58.3390198</lat>
     <lng>26.6670753</lng>
    </southwest>
    <northeast>
     <lat>58.4108843</lat>
     <lng>26.7980148</lng>
    </northeast>
   </bounds>
  </geometry>
  <place_id>ChIJ9z1d1dg260YREG38GG2zAAQ</place_id>
 </result>
</GeocodeResponse>


<GeocodeResponse>
 <status>OK</status>
 <result>
  <type>locality</type>
  <type>political</type>
  <formatted_address>Tampere, Finland</formatted_address>
  <address_component>
   <long_name>Tampere</long_name>
   <short_name>Tampere</short_name>
   <type>locality</type>
   <type>political</type>
  </address_component>
  <address_component>
   <long_name>Finland</long_name>
   <short_name>FI</short_name>
   <type>country</type>
   <type>political</type>
  </address_component>
  <geometry>
   <location>
    <lat>61.4977524</lat>
    <lng>23.7609535</lng>
   </location>
   <location_type>APPROXIMATE</location_type>
   <viewport>
    <southwest>
     <lat>61.4272817</lat>
     <lng>23.5422013</lng>
    </southwest>
    <northeast>
     <lat>61.8365736</lat>
     <lng>24.1183841</lng>
    </northeast>
   </viewport>
   <bounds>
    <southwest>
     <lat>61.4272817</lat>
     <lng>23.5422013</lng>
    </southwest>
    <northeast>
     <lat>61.8365736</lat>
     <lng>24.1183841</lng>
    </northeast>
   </bounds>
  </geometry>
  <place_id>ChIJXdqTRVXfjkYRwCILHr3j32o</place_id>
 </result>
</GeocodeResponse>


<GeocodeResponse>
 <status>OK</status>
 <result>
  <type>locality</type>
  <type>political</type>
  <formatted_address>Helsinki, Finland</formatted_address>
  <address_component>
   <long_name>Helsinki</long_name>
   <short_name>HKI</short_name>
   <type>locality</type>
   <type>political</type>
  </address_component>
  <address_component>
   <long_name>Finland</long_name>
   <short_name>FI</short_name>
   <type>country</type>
   <type>political</type>
  </address_component>
  <geometry>
   <location>
    <lat>60.1698557</lat>
    <lng>24.9383791</lng>
   </location>
   <location_type>APPROXIMATE</location_type>
   <viewport>
    <southwest>
     <lat>59.9224887</lat>
     <lng>24.7828758</lng>
    </southwest>
    <northeast>
     <lat>60.2978389</lat>
     <lng>25.2544849</lng>
    </northeast>
   </viewport>
   <bounds>
    <southwest>
     <lat>59.9224887</lat>
     <lng>24.7828758</lng>
    </southwest>
    <northeast>
     <lat>60.2978389</lat>
     <lng>25.2544849</lng>
    </northeast>
   </bounds>
  </geometry>
  <place_id>ChIJkQYhlscLkkYRY_fiO4S9Ts0</place_id>
 </result>
</GeocodeResponse>


<GeocodeResponse>
 <status>OK</status>
 <result>
  <type>locality</type>
  <type>political</type>
  <formatted_address>Espoo, Finland</formatted_address>
  <address_component>
   <long_name>Espoo</long_name>
   <short_name>Espoo</short_name>
   <type>locality</type>
   <type>political</type>
  </address_component>
  <address_component>
   <long_name>Finland</long_name>
   <short_name>FI</short_name>
   <type>country</type>
   <type>political</type>
  </address_component>
  <geometry>
   <location>
    <lat>60.2054911</lat>
    <lng>24.6559000</lng>
   </location>
   <location_type>APPROXIMATE</location_type>
   <viewport>
    <southwest>
     <lat>60.0499087</lat>
     <lng>24.4996565</lng>
    </southwest>
    <northeast>
     <lat>60.3636105</lat>
     <lng>24.8505715</lng>
    </northeast>
   </viewport>
   <bounds>
    <southwest>
     <lat>60.0499087</lat>
     <lng>24.4996565</lng>
    </southwest>
    <northeast>
     <lat>60.3636105</lat>
     <lng>24.8505715</lng>
    </northeast>
   </bounds>
  </geometry>
  <place_id>ChIJ4Us9pPryjUYRn1MzXbSQuPA</place_id>
 </result>
</GeocodeResponse>


<GeocodeResponse>
 <status>OK</status>
 <result>
  <type>locality</type>
  <type>political</type>
  <formatted_address>Vantaa, Finland</formatted_address>
  <address_component>
   <long_name>Vantaa</long_name>
   <short_name>Vantaa</short_name>
   <type>locality</type>
   <type>political</type>
  </address_component>
  <address_component>
   <long_name>Finland</long_name>
   <short_name>FI</short_name>
   <type>country</type>
   <type>political</type>
  </address_component>
  <geometry>
   <location>
    <lat>60.2933524</lat>
    <lng>25.0377686</lng>
   </location>
   <location_type>APPROXIMATE</location_type>
   <viewport>
    <southwest>
     <lat>60.2371420</lat>
     <lng>24.7465122</lng>
    </southwest>
    <northeast>
     <lat>60.4011366</lat>
     <lng>25.1930624</lng>
    </northeast>
   </viewport>
   <bounds>
    <southwest>
     <lat>60.2371420</lat>
     <lng>24.7465122</lng>
    </southwest>
    <northeast>
     <lat>60.4011366</lat>
     <lng>25.1930624</lng>
    </northeast>
   </bounds>
  </geometry>
  <place_id>ChIJtUU4OrgHkkYRT4ChMnbNt-I</place_id>
 </result>
</GeocodeResponse>


<GeocodeResponse>
 <status>OK</status>
 <result>
  <type>locality</type>
  <type>political</type>
  <formatted_address>Avignon, France</formatted_address>
  <address_component>
   <long_name>Avignon</long_name>
   <short_name>Avignon</short_name>
   <type>locality</type>
   <type>political</type>
  </address_component>
  <address_component>
   <long_name>Vaucluse</long_name>
   <short_name>Vaucluse</short_name>
   <type>administrative_area_level_2</type>
   <type>political</type>
  </address_component>
  <address_component>
   <long_name>Provence-Alpes-Côte d'Azur</long_name>
   <short_name>Provence-Alpes-Côte d'Azur</short_name>
   <type>administrative_area_level_1</type>
   <type>political</type>
  </address_component>
  <address_component>
   <long_name>France</long_name>
   <short_name>FR</short_name>
   <type>country</type>
   <type>political</type>
  </address_component>
  <geometry>
   <location>
    <lat>43.9493170</lat>
    <lng>4.8055280</lng>
   </location>
   <location_type>APPROXIMATE</location_type>
   <viewport>
    <southwest>
     <lat>43.8864731</lat>
     <lng>4.7392790</lng>
    </southwest>
    <northeast>
     <lat>43.9966409</lat>
     <lng>4.9272260</lng>
    </northeast>
   </viewport>
   <bounds>
    <southwest>
     <lat>43.8864731</lat>
     <lng>4.7392790</lng>
    </southwest>
    <northeast>
     <lat>43.9966409</lat>
     <lng>4.9272260</lng>
    </northeast>
   </bounds>
  </geometry>
  <place_id>ChIJB528OYfrtRIRNnsd-m6bQuY</place_id>
 </result>
</GeocodeResponse>


<GeocodeResponse>
 <status>OK</status>
 <result>
  <type>locality</type>
  <type>political</type>
  <formatted_address>77500 Chelles, France</formatted_address>
  <address_component>
   <long_name>Chelles</long_name>
   <short_name>Chelles</short_name>
   <type>locality</type>
   <type>political</type>
  </address_component>
  <address_component>
   <long_name>Seine-et-Marne</long_name>
   <short_name>Seine-et-Marne</short_name>
   <type>administrative_area_level_2</type>
   <type>political</type>
  </address_component>
  <address_component>
   <long_name>Île-de-France</long_name>
   <short_name>Île-de-France</short_name>
   <type>administrative_area_level_1</type>
   <type>political</type>
  </address_component>
  <address_component>
   <long_name>France</long_name>
   <short_name>FR</short_name>
   <type>country</type>
   <type>political</type>
  </address_component>
  <address_component>
   <long_name>77500</long_name>
   <short_name>77500</short_name>
   <type>postal_code</type>
  </address_component>
  <geometry>
   <location>
    <lat>48.8775350</lat>
    <lng>2.5901600</lng>
   </location>
   <location_type>APPROXIMATE</location_type>
   <viewport>
    <southwest>
     <lat>48.8648039</lat>
     <lng>2.5591860</lng>
    </southwest>
    <northeast>
     <lat>48.9077130</lat>
     <lng>2.6314990</lng>
    </northeast>
   </viewport>
   <bounds>
    <southwest>
     <lat>48.8648039</lat>
     <lng>2.5591860</lng>
    </southwest>
    <northeast>
     <lat>48.9077130</lat>
     <lng>2.6314990</lng>
    </northeast>
   </bounds>
  </geometry>
  <place_id>ChIJTdlvMVMQ5kcRYF-MaMOCCwQ</place_id>
 </result>
</GeocodeResponse>


<GeocodeResponse>
 <status>OK</status>
 <result>
  <type>locality</type>
  <type>political</type>
  <formatted_address>95150 Taverny, France</formatted_address>
  <address_component>
   <long_name>Taverny</long_name>
   <short_name>Taverny</short_name>
   <type>locality</type>
   <type>political</type>
  </address_component>
  <address_component>
   <long_name>Val-d'Oise</long_name>
   <short_name>Val-d'Oise</short_name>
   <type>administrative_area_level_2</type>
   <type>political</type>
  </address_component>
  <address_component>
   <long_name>Île-de-France</long_name>
   <short_name>Île-de-France</short_name>
   <type>administrative_area_level_1</type>
   <type>political</type>
  </address_component>
  <address_component>
   <long_name>France</long_name>
   <short_name>FR</short_name>
   <type>country</type>
   <type>political</type>
  </address_component>
  <address_component>
   <long_name>95150</long_name>
   <short_name>95150</short_name>
   <type>postal_code</type>
  </address_component>
  <geometry>
   <location>
    <lat>49.0274410</lat>
    <lng>2.2235070</lng>
   </location>
   <location_type>APPROXIMATE</location_type>
   <viewport>
    <southwest>
     <lat>49.0028239</lat>
     <lng>2.1827519</lng>
    </southwest>
    <northeast>
     <lat>49.0519010</lat>
     <lng>2.2529910</lng>
    </northeast>
   </viewport>
   <bounds>
    <southwest>
     <lat>49.0028239</lat>
     <lng>2.1827519</lng>
    </southwest>
    <northeast>
     <lat>49.0519010</lat>
     <lng>2.2529910</lng>
    </northeast>
   </bounds>
  </geometry>
  <place_id>ChIJF-koNfNd5kcRWo1NltU_53I</place_id>
 </result>
</GeocodeResponse>


<GeocodeResponse>
 <status>OK</status>
 <result>
  <type>locality</type>
  <type>political</type>
  <formatted_address>Perpignan, France</formatted_address>
  <address_component>
   <long_name>Perpignan</long_name>
   <short_name>Perpignan</short_name>
   <type>locality</type>
   <type>political</type>
  </address_component>
  <address_component>
   <long_name>Pyrénées-Orientales</long_name>
   <short_name>Pyrénées-Orientales</short_name>
   <type>administrative_area_level_2</type>
   <type>political</type>
  </address_component>
  <address_component>
   <long_name>Occitanie</long_name>
   <short_name>Occitanie</short_name>
   <type>administrative_area_level_1</type>
   <type>political</type>
  </address_component>
  <address_component>
   <long_name>France</long_name>
   <short_name>FR</short_name>
   <type>country</type>
   <type>political</type>
  </address_component>
  <geometry>
   <location>
    <lat>42.6886591</lat>
    <lng>2.8948332</lng>
   </location>
   <location_type>APPROXIMATE</location_type>
   <viewport>
    <southwest>
     <lat>42.6492561</lat>
     <lng>2.8262821</lng>
    </southwest>
    <northeast>
     <lat>42.7488460</lat>
     <lng>2.9827210</lng>
    </northeast>
   </viewport>
   <bounds>
    <southwest>
     <lat>42.6492561</lat>
     <lng>2.8262821</lng>
    </southwest>
    <northeast>
     <lat>42.7488460</lat>
     <lng>2.9827210</lng>
    </northeast>
   </bounds>
  </geometry>
  <place_id>ChIJ_Yj9gE5usBIRT93yIGUwgxw</place_id>
 </result>
</GeocodeResponse>


<GeocodeResponse>
 <status>OK</status>
 <result>
  <type>locality</type>
  <type>political</type>
  <formatted_address>92240 Malakoff, France</formatted_address>
  <address_component>
   <long_name>Malakoff</long_name>
   <short_name>Malakoff</short_name>
   <type>locality</type>
   <type>political</type>
  </address_component>
  <address_component>
   <long_name>Hauts-de-Seine</long_name>
   <short_name>Hauts-de-Seine</short_name>
   <type>administrative_area_level_2</type>
   <type>political</type>
  </address_component>
  <address_component>
   <long_name>Île-de-France</long_name>
   <short_name>Île-de-France</short_name>
   <type>administrative_area_level_1</type>
   <type>political</type>
  </address_component>
  <address_component>
   <long_name>France</long_name>
   <short_name>FR</short_name>
   <type>country</type>
   <type>political</type>
  </address_component>
  <address_component>
   <long_name>92240</long_name>
   <short_name>92240</short_name>
   <type>postal_code</type>
  </address_component>
  <geometry>
   <location>
    <lat>48.8172750</lat>
    <lng>2.2977599</lng>
   </location>
   <location_type>APPROXIMATE</location_type>
   <viewport>
    <southwest>
     <lat>48.8089410</lat>
     <lng>2.2744729</lng>
    </southwest>
    <northeast>
     <lat>48.8251341</lat>
     <lng>2.3141281</lng>
    </northeast>
   </viewport>
   <bounds>
    <southwest>
     <lat>48.8089410</lat>
     <lng>2.2744729</lng>
    </southwest>
    <northeast>
     <lat>48.8251341</lat>
     <lng>2.3141281</lng>
    </northeast>
   </bounds>
  </geometry>
  <place_id>ChIJd8fRiVlw5kcRmL51zu7Cmz0</place_id>
 </result>
</GeocodeResponse>


<GeocodeResponse>
 <status>OK</status>
 <result>
  <type>locality</type>
  <type>political</type>
  <formatted_address>25000 Besançon, France</formatted_address>
  <address_component>
   <long_name>Besançon</long_name>
   <short_name>Besançon</short_name>
   <type>locality</type>
   <type>political</type>
  </address_component>
  <address_component>
   <long_name>Doubs</long_name>
   <short_name>Doubs</short_name>
   <type>administrative_area_level_2</type>
   <type>political</type>
  </address_component>
  <address_component>
   <long_name>Bourgogne-Franche-Comté</long_name>
   <short_name>Bourgogne-Franche-Comté</short_name>
   <type>administrative_area_level_1</type>
   <type>political</type>
  </address_component>
  <address_component>
   <long_name>France</long_name>
   <short_name>FR</short_name>
   <type>country</type>
   <type>political</type>
  </address_component>
  <address_component>
   <long_name>25000</long_name>
   <short_name>25000</short_name>
   <type>postal_code</type>
  </address_component>
